country,location,page,product_type,property_type_x,sort,created_unix,title,property_type_y,lister_name,listing_type,price,price_currency,price_high,price_low,price_type,commission,latitude,longitude,location_accuracy,construction_year,keywords,bathroom_number,bedroom_number,car_spaces,summary,updated_in_days,dt,latitude_longtitude
uk,somerset,1,realestate,property,nestoria_rank,1560787331,"Queen Square, North Curry, Taunton, Somerset, TA3",house,Stags,buy,450000.0,£,450000.0,450000.0,fixed,0,51.0228,-2.97205,9,0,"Detached, Garden, No Chain, Double Bedroom, Parking, Reception",,3,0,A most village house situated in a conservation area overlooking a ...,2,2019-06-17 16:02:11,"{'latitude': 51.0228, 'longitude': -2.97205}"
uk,somerset,1,realestate,property,nestoria_rank,1560787331,"Manor Farm, Forton, Chard, Somerset, TA20",house,Greenslade Taylor Hunt,buy,775000.0,£,775000.0,775000.0,fixed,0,50.8586,-2.94579,9,0,"Detached, Freehold, Grade II, Conversion, Listed",,5,0,A contemporary conversion of this grade ii listed barn providing ve...,1,2019-06-17 16:02:11,"{'latitude': 50.8586, 'longitude': -2.94579}"
uk,somerset,1,realestate,property,nestoria_rank,1560787331,"Whittington Drive, Somerset",house,,buy,219950.0,£,219950.0,219950.0,fixed,0,51.3604,-2.93822,9,0,"Detached, New Build, No Chain, Conservatory, Kitchen, Bungalow, Parking, Gas Central Heating",,2,0,One off design detached bungalow with accommodation comprising sitt...,1,2019-06-17 16:02:11,"{'latitude': 51.3604, 'longitude': -2.93822}"
uk,somerset,1,realestate,property,nestoria_rank,1560787331,"Vivary Gate, Upper High Street, Taunton, Somerset, TA1",flat,Greenslade Taylor Hunt,buy,88000.0,£,88000.0,88000.0,fixed,0,51.0117,-3.10403,9,0,,,2,0,A top floor 2 bedroom flat situated within this centrally located d...,2,2019-06-17 16:02:11,"{'latitude': 51.0117, 'longitude': -3.10403}"
uk,somerset,1,realestate,property,nestoria_rank,1560787331,"Farriers Green, Monkton Heathfield, Taunton, Somerset",house,,buy,280000.0,£,280000.0,280000.0,fixed,0,51.0328,-3.06172,9,0,"Detached, No Chain, Modern, Gas Central Heating",,3,0,Positioned within a highly sought-after development in monkton heat...,3,2019-06-17 16:02:11,"{'latitude': 51.0328, 'longitude': -3.06172}"
uk,somerset,1,realestate,property,nestoria_rank,1560787331,"Knighton Lane, Nr Stogursey, Bridgwater, Somerset, TA5",house,Greenslade Taylor Hunt,buy,475000.0,£,475000.0,475000.0,fixed,0,51.1931,-3.15598,9,0,"Detached, Freehold, Garage, Bungalow",,3,0,A detached bungalow set in a large plot and benefiting from a detac...,2,2019-06-17 16:02:11,"{'latitude': 51.1931, 'longitude': -3.15598}"
uk,somerset,1,realestate,property,nestoria_rank,1560787331,"Church Close, Lydeard St. Lawrence, Taunton, Somerset, TA4",house,Greenslade Taylor Hunt,buy,450000.0,£,450000.0,450000.0,fixed,0,51.0826,-3.24578,9,0,"Detached, Garden, Bungalow",,3,0,A ly situated detached bungalow enjoying an elevated position with ...,2,2019-06-17 16:02:11,"{'latitude': 51.0826, 'longitude': -3.24578}"
uk,somerset,1,realestate,property,nestoria_rank,1560787331,"Palmer Street, Weston-super-Mare, North Somerset. BS23",house,,buy,185000.0,£,185000.0,185000.0,fixed,0,51.349,-2.97713,9,0,"Garden, Terraced, Reception",,3,0,Well presented stone built terrace house. Three beds. Two reception...,1,2019-06-17 16:02:11,"{'latitude': 51.349, 'longitude': -2.97713}"
uk,somerset,1,realestate,property,nestoria_rank,1560787331,"Northfield, Bridgwater, Somerset",house,,buy,347500.0,£,347500.0,347500.0,fixed,0,51.1253,-3.01413,9,0,Victorian,,5,0,Located within one of the most prestigious and sought-after tree li...,3,2019-06-17 16:02:11,"{'latitude': 51.1253, 'longitude': -3.01413}"
uk,somerset,1,realestate,property,nestoria_rank,1560787331,"Milverton, Somerset - Modern",house,Gibbins Richards,buy,560000.0,£,560000.0,560000.0,fixed,0,51.0279,-3.25856,9,0,"Detached, Bungalow, Modern",,4,0,A modern and detached bungalow which sits on its own plot of over h...,2,2019-06-17 16:02:11,"{'latitude': 51.0279, 'longitude': -3.25856}"
uk,somerset,1,realestate,property,nestoria_rank,1560787331,"Royal Drive, Bridgwater, Somerset, TA6",house,Greenslade Taylor Hunt,buy,189950.0,£,189950.0,189950.0,fixed,0,51.1492,-2.98315,9,0,"Freehold, Garden, Semi-Detached, Parking",,3,0,A well presented three bed semi-detached house with a south westerl...,3,2019-06-17 16:02:11,"{'latitude': 51.1492, 'longitude': -2.98315}"
uk,somerset,1,realestate,property,nestoria_rank,1560787331,"Quantock Crt, Sth.Esplanade, Burnham-on-Sea, Somerset",flat,,buy,239950.0,£,239950.0,239950.0,fixed,0,51.2306,-3.00068,9,0,"Penthouse, Purpose Built",,3,0,A purpose built penthouse apartment standing to the south side of b...,2,2019-06-17 16:02:11,"{'latitude': 51.2306, 'longitude': -3.00068}"
uk,somerset,1,realestate,property,nestoria_rank,1560787331,"Pound Hill, Donyatt, Ilminster, Somerset, TA19",house,Greenslade Taylor Hunt,buy,239950.0,£,239950.0,239950.0,fixed,0,50.924,-2.94725,9,0,"Freehold, Semi-Detached, Cottage",,3,0,"Situated in an elevated position with extensive views to the front,...",2,2019-06-17 16:02:11,"{'latitude': 50.924, 'longitude': -2.94725}"
uk,somerset,1,realestate,property,nestoria_rank,1560787331,"Church Lane, Brent Knoll, Somerset",house,,buy,275000.0,£,275000.0,275000.0,fixed,0,51.2505,-2.95445,9,0,Semi-Detached,,2,0,A well presented 2 bed semi detached property within close proximit...,2,2019-06-17 16:02:11,"{'latitude': 51.2505, 'longitude': -2.95445}"
uk,somerset,1,realestate,property,nestoria_rank,1560787331,"Leach Road, Chard, Somerset, TA20",flat,Greenslade Taylor Hunt,buy,134950.0,£,134950.0,134950.0,fixed,0,50.8849,-2.95255,9,0,"Conversion, Parking",,2,0,"Prices starting from £134,950 for a 2 bedroom apartment with 2 park...",2,2019-06-17 16:02:11,"{'latitude': 50.8849, 'longitude': -2.95255}"
uk,somerset,2,realestate,property,nestoria_rank,1560787335,"School Lane, Blackford, Wedmore, Somerset, BS28",house,Knight Frank,buy,699999.0,£,699999.0,699999.0,fixed,0,51.22429,-2.846624,9,0,Detached,,4,0,"Unique property with commercial and residential uses, near wedmore....",2,2019-06-17 16:02:15,"{'latitude': 51.22429, 'longitude': -2.846624}"
uk,somerset,2,realestate,property,nestoria_rank,1560787335,"Orchard Rise, Chard, Somerset, TA20",house,Greenslade Taylor Hunt,buy,175000.0,£,175000.0,175000.0,fixed,0,50.863453,-2.955406,9,0,"Semi-Detached, Double Bedroom, Kitchen, Bungalow",,1,0,Last plot remaining flooring included4 orchard rise the broadway is...,2,2019-06-17 16:02:15,"{'latitude': 50.863453, 'longitude': -2.955406}"
uk,somerset,2,realestate,property,nestoria_rank,1560787335,"Hele, Taunton, Somerset, TA4 - Garden",house,Stags,buy,299950.0,£,299950.0,299950.0,fixed,0,51.0117,-3.16322,9,0,"Garden, Semi-Detached, Fireplace, Garage, Kitchen, Cottage",,2,0,A two bedroom semi-detached cottage set in a rural location on the ...,4,2019-06-17 16:02:15,"{'latitude': 51.0117, 'longitude': -3.16322}"
uk,somerset,2,realestate,property,nestoria_rank,1560787335,"Worlebury Hill Road, Worlebury, Weston-super-Mare, North Somerset. BS22",house,,buy,500000.0,£,500000.0,500000.0,fixed,0,51.36,-2.95607,9,0,"Detached, Garden, Double Garage, Double Bedroom, Kitchen, Reception",,4,0,Detached house. Four double beds. Two reception rooms plus large ki...,2,2019-06-17 16:02:15,"{'latitude': 51.36, 'longitude': -2.95607}"
uk,somerset,2,realestate,property,nestoria_rank,1560787335,"Halcombe, Chard, Somerset, TA20",house,Greenslade Taylor Hunt,buy,205000.0,£,205000.0,205000.0,fixed,0,50.8643,-2.96325,9,0,Terraced,,4,0,A smart and 4 bedroom house on the outskirts of the town within eas...,2,2019-06-17 16:02:15,"{'latitude': 50.8643, 'longitude': -2.96325}"
uk,somerset,2,realestate,property,nestoria_rank,1560787335,"Statcombe, Listercombe Close, Ilminster, Somerset, TA19",house,Greenslade Taylor Hunt,buy,195000.0,£,195000.0,195000.0,fixed,0,50.9215,-2.90988,9,0,"Freehold, Garden, Semi-Detached, Parking",,2,0,"A high specification 2 double bedroomed semi-detached house, situat...",3,2019-06-17 16:02:15,"{'latitude': 50.9215, 'longitude': -2.90988}"
uk,somerset,2,realestate,property,nestoria_rank,1560787335,"Washford, Watchet, Somerset TA23",house,Wilkie May & Tuckwood,buy,199950.0,£,199950.0,199950.0,fixed,0,51.1608,-3.36048,9,0,"Garden, No Chain, Terraced, Garage, Cottage",,3,0,No onward chain a ly presented two/three bedroom end of terrace cot...,3,2019-06-17 16:02:15,"{'latitude': 51.1608, 'longitude': -3.36048}"
uk,somerset,2,realestate,property,nestoria_rank,1560787335,"Spencer Avenue, Taunton, Somerset, TA2",house,Greenslade Taylor Hunt,buy,275000.0,£,275000.0,275000.0,fixed,0,51.0264,-3.1089,9,0,"Freehold, Semi-Detached, No Chain",,3,0,A three bedroomed semi detached house occupying a corner location w...,4,2019-06-17 16:02:15,"{'latitude': 51.0264, 'longitude': -3.1089}"
uk,somerset,2,realestate,property,nestoria_rank,1560787335,"Montpelier, Weston-super-Mare, North Somerset. BS23",house,,buy,450000.0,£,450000.0,450000.0,fixed,0,51.351,-2.97065,9,0,"Garden, Semi-Detached, En suite, Victorian, Parking",,4,0,Victorian semi detached house. Character & charm in abundance. Four...,2,2019-06-17 16:02:15,"{'latitude': 51.351, 'longitude': -2.97065}"
uk,somerset,2,realestate,property,nestoria_rank,1560787335,"St. Margarets Lane, South Chard, Chard, Somerset, TA20",house,Greenslade Taylor Hunt,buy,375000.0,£,375000.0,375000.0,fixed,0,50.8432,-2.95607,9,0,"Semi-Detached, Cottage",,4,0,A 4 bedroom character cottage in a glorious location in a residenti...,2,2019-06-17 16:02:15,"{'latitude': 50.8432, 'longitude': -2.95607}"
uk,somerset,2,realestate,property,nestoria_rank,1560787335,"Penny Lea, Watchet, Somerset TA23",house,Wilkie May & Tuckwood,buy,320000.0,£,320000.0,320000.0,fixed,0,51.1749,-3.32692,9,0,"Detached, Bungalow, Parking",,4,0,Good sized level plot an incredibly four bedroom detached 1950's bu...,3,2019-06-17 16:02:15,"{'latitude': 51.1749, 'longitude': -3.32692}"
uk,somerset,2,realestate,property,nestoria_rank,1560787335,"Churchstanton, Taunton, Somerset, TA3",land,Stags,buy,330000.0,£,330000.0,330000.0,fixed,0,50.9383,-3.14546,9,0,,,,0,"65 acres of pasture, conservation land and woodland with outstandin...",2,2019-06-17 16:02:15,"{'latitude': 50.9383, 'longitude': -3.14546}"
uk,somerset,2,realestate,property,nestoria_rank,1560787335,"West Street, Seavington St Mary, Ilminster, Somerset, TA19",house,Greenslade Taylor Hunt,buy,295000.0,£,295000.0,295000.0,fixed,0,50.9296,-2.85705,9,0,"Detached, Double Bedroom, Cottage",,3,0,"A 3 double bedroom semi detached natural stone character cottage, s...",3,2019-06-17 16:02:15,"{'latitude': 50.9296, 'longitude': -2.85705}"
uk,somerset,2,realestate,property,nestoria_rank,1560787335,"Enmore, Bridgwater, Somerset, TA5",house,Stags,buy,695000.0,£,695000.0,695000.0,fixed,0,51.1171,-3.05324,9,0,"Detached, En suite, Kitchen, Cottage, Reception",,5,0,A period house with separate cottage and grounds of approximately 1...,5,2019-06-17 16:02:15,"{'latitude': 51.1171, 'longitude': -3.05324}"
uk,somerset,2,realestate,property,nestoria_rank,1560787335,"Station Road, St Georges, Weston-super-Mare, North Somerset. BS22",house,,buy,315000.0,£,315000.0,315000.0,fixed,0,51.3622,-2.89753,9,0,"Detached, No Chain, Refurbished, Kitchen, Bungalow, Parking",,3,0,Urbished throughout. Detached bungalow. St georges. Three beds. Lar...,2,2019-06-17 16:02:15,"{'latitude': 51.3622, 'longitude': -2.89753}"
uk,somerset,3,realestate,property,nestoria_rank,1560787337,"Spring Hill, Worle, Weston-super-Mare, North Somerset. BS22",house,,buy,275000.0,£,275000.0,275000.0,fixed,0,51.3584,-2.94576,9,0,"Detached, Garden, Garage",,3,0,Non estate. Detached house. Three beds. Large lounge/dining area. D...,2,2019-06-17 16:02:17,"{'latitude': 51.3584, 'longitude': -2.94576}"
uk,somerset,3,realestate,property,nestoria_rank,1560787337,"Hill End, Lower Kewstoke Road, Worle, Weston-super-Mare, North Somerset. BS22",house,,buy,265000.0,£,265000.0,265000.0,fixed,0,51.3645,-2.93142,9,0,"Garden, Semi-Detached, Garage",,3,0,Semi detached house on worle hillside. Three bedrooms. Two recs. Lo...,2,2019-06-17 16:02:17,"{'latitude': 51.3645, 'longitude': -2.93142}"
uk,somerset,3,realestate,property,nestoria_rank,1560787337,"Summerland Avenue, Minehead, Somerset, TA24",flat,,buy,155000.0,£,155000.0,155000.0,fixed,0,51.2058,-3.47319,9,0,"Leasehold, Maisonette, Conversion",,3,0,A self contained converted first and second floor maisonette situat...,2,2019-06-17 16:02:17,"{'latitude': 51.2058, 'longitude': -3.47319}"
uk,somerset,3,realestate,property,nestoria_rank,1560787337,"Summerland Avenue, Minehead, Somerset, TA24",flat,,buy,129950.0,£,129950.0,129950.0,fixed,0,51.2058,-3.47319,9,0,"Leasehold, Conversion",,1,0,A well maintained and modernised converted self-contained one bedro...,2,2019-06-17 16:02:17,"{'latitude': 51.2058, 'longitude': -3.47319}"
uk,somerset,3,realestate,property,nestoria_rank,1560787337,"Ashcott Drive, Burnham-on-Sea, Somerset, TA8",house,Greenslade Taylor Hunt,buy,249950.0,£,249950.0,249950.0,fixed,0,51.2324,-2.98746,9,0,"Freehold, Garden, Semi-Detached, Garage, Bungalow, Cul-de-Sac",,3,0,This flexible and versatile 3 bedroom semi detached dormer style bu...,4,2019-06-17 16:02:17,"{'latitude': 51.2324, 'longitude': -2.98746}"
uk,somerset,3,realestate,property,nestoria_rank,1560787337,"Market Place, Castle Cary, Somerset, BA7",house,Greenslade Taylor Hunt,buy,700000.0,£,700000.0,700000.0,fixed,0,51.0894,-2.51377,9,0,"Freehold, Garden, Grade II, Terraced, Georgian, Listed",,5,0,"A , georgian, grade ii listed, five bedroom family home with garagi...",2,2019-06-17 16:02:17,"{'latitude': 51.0894, 'longitude': -2.51377}"
uk,somerset,3,realestate,property,nestoria_rank,1560787337,Timberscombe SOMERSET,house,,buy,765000.0,£,765000.0,765000.0,fixed,0,51.1727,-3.48477,9,0,,,4,0,"A highly , period four bedroom house, available with approx. 15 or ...",2,2019-06-17 16:02:17,"{'latitude': 51.1727, 'longitude': -3.48477}"
uk,somerset,3,realestate,property,nestoria_rank,1560787337,"Winsford, Minehead, Somerset, TA24",house,Stags,buy,475000.0,£,475000.0,475000.0,fixed,0,51.1055,-3.56543,9,0,"Garden, Semi-Detached, Garage",,5,0,A versatile 5 bedroom home with gardens and woodland in the heart o...,2,2019-06-17 16:02:17,"{'latitude': 51.1055, 'longitude': -3.56543}"
uk,somerset,3,realestate,property,nestoria_rank,1560787337,"Meadow Close, Kingston St. Mary, Taunton, Somerset, TA2",house,Greenslade Taylor Hunt,buy,425000.0,£,425000.0,425000.0,fixed,0,51.0599,-3.11366,9,0,"Detached, Freehold, Bungalow, Cul-de-Sac",,3,0,A modernised 3 bedroomed detached bungalow set in a small cul de sa...,5,2019-06-17 16:02:17,"{'latitude': 51.0599, 'longitude': -3.11366}"
uk,somerset,3,realestate,property,nestoria_rank,1560787337,"Over Stowey, Bridgwater, Somerset, TA5",house,Stags,buy,2000000.0,£,2000000.0,2000000.0,fixed,0,51.1402,-3.16509,9,0,"Detached, Garden, En suite, Garage, Kitchen, Swimming Pool, Reception, Georgian",,9,0,An georgian vicarage with landscaped gardens and grounds extending ...,5,2019-06-17 16:02:17,"{'latitude': 51.1402, 'longitude': -3.16509}"
uk,somerset,3,realestate,property,nestoria_rank,1560787337,"Banwell, North Somerset",property,David James,buy,85000.0,£,85000.0,85000.0,fixed,0,51.3421,-2.86944,9,0,,,0,0,An opportunity to purchase a self-contained 1.58 acre paddock with ...,2,2019-06-17 16:02:17,"{'latitude': 51.3421, 'longitude': -2.86944}"
uk,somerset,3,realestate,property,nestoria_rank,1560787337,"Chico, Lipe Lane, Henlade, Taunton, Somerset",house,Newton King,buy,345000.0,£,345000.0,345000.0,fixed,0,51.0122,-3.04289,9,0,"Detached, Double Bedroom, Kitchen, Bungalow",,3,0,"2/3 bedroom detached bungalow situated in a semi-rural location, of...",5,2019-06-17 16:02:17,"{'latitude': 51.0122, 'longitude': -3.04289}"
uk,somerset,3,realestate,property,nestoria_rank,1560787337,"Montacute Circus, Weston-Super-Mare, North Somerset, BS24",flat,,buy,139995.0,£,139995.0,139995.0,fixed,0,51.3491,-2.92375,9,0,"Double Bedroom, Garage, Kitchen",,1,0,A opportunity for a first time buyer or investor. A well presented ...,3,2019-06-17 16:02:17,"{'latitude': 51.3491, 'longitude': -2.92375}"
uk,somerset,3,realestate,property,nestoria_rank,1560787337,"West Street, Axbridge, Somerset, BS26",house,Knight Frank,buy,600000.0,£,600000.0,600000.0,fixed,0,51.28789,-2.820584,9,0,"Garden, Georgian",,5,0,5 bedroom town house with views in bs26. Pretty georgian town house...,3,2019-06-17 16:02:17,"{'latitude': 51.28789, 'longitude': -2.820584}"
uk,somerset,3,realestate,property,nestoria_rank,1560787337,"Naish Road, Burnham-on-Sea, Somerset",house,,buy,249950.0,£,249950.0,249950.0,fixed,0,51.2553,-3.00164,9,0,"Detached, Modern, Parking, Gas Central Heating",,3,0,A modern 3 bedroom detached house with the benefit of gas central h...,4,2019-06-17 16:02:17,"{'latitude': 51.2553, 'longitude': -3.00164}"
uk,somerset,4,realestate,property,nestoria_rank,1560787339,"Winpenny Lane, Kingston St Mary, Taunton, Somerset, TA2",house,Stags,buy,450000.0,£,450000.0,450000.0,fixed,0,51.06,-3.10952,9,0,"Detached, Garden, Kitchen, Bungalow, Reception",2,3,0,An individual detached bungalow with well presented accommodation i...,6,2019-06-17 16:02:19,"{'latitude': 51.06, 'longitude': -3.10952}"
uk,somerset,4,realestate,property,nestoria_rank,1560787339,"Blackdown View, Ilminster, Somerset, TA19",house,Greenslade Taylor Hunt,buy,190000.0,£,190000.0,190000.0,fixed,0,50.9285,-2.90568,9,0,"Freehold, Garden, Terraced, Parking",,3,0,Set on the northern fringe of blackdown view adjoining dillington f...,4,2019-06-17 16:02:19,"{'latitude': 50.9285, 'longitude': -2.90568}"
uk,somerset,4,realestate,property,nestoria_rank,1560787339,"Highbridge Road, Burnham-on-Sea, Somerset",house,,buy,285000.0,£,285000.0,285000.0,fixed,0,51.2309,-2.99012,9,0,"Terraced, Parking",,3,0,"A conveniently situated 3-4 bedroom terraced house, which has been ...",4,2019-06-17 16:02:19,"{'latitude': 51.2309, 'longitude': -2.99012}"
uk,somerset,4,realestate,property,nestoria_rank,1560787339,"Chelwood, 46-48 Hill Road, Weston-super-Mare, North Somerset. BS23",flat,,buy,145000.0,£,145000.0,145000.0,fixed,0,51.3513,-2.96849,9,0,"Balcony, Purpose Built, Garage",,2,0,Purpose built first floor flat. Two beds. Great location close to t...,3,2019-06-17 16:02:19,"{'latitude': 51.3513, 'longitude': -2.96849}"
uk,somerset,4,realestate,property,nestoria_rank,1560787339,"Woodhill, Stoke St. Gregory, Taunton, Somerset, TA3",house,Greenslade Taylor Hunt,buy,399000.0,£,399000.0,399000.0,fixed,0,51.043,-2.9222,9,0,"Detached, Freehold",,5,0,A successful period public house with planning consent for resident...,5,2019-06-17 16:02:19,"{'latitude': 51.043, 'longitude': -2.9222}"
uk,somerset,4,realestate,property,nestoria_rank,1560787339,"Long Load, Langport, Somerset, TA10",house,Stags,buy,525000.0,£,525000.0,525000.0,fixed,0,51.0072,-2.76258,9,0,"Detached, Garden, Grade II, Listed",,4,0,A characterful grade ii listed home bursting with features and a la...,4,2019-06-17 16:02:19,"{'latitude': 51.0072, 'longitude': -2.76258}"
uk,somerset,4,realestate,property,nestoria_rank,1560787339,"Rosedene, The Wall, MARK, Somerset",house,,buy,195000.0,£,195000.0,195000.0,fixed,0,51.2278,-2.89464,9,0,Terraced,,2,0,Rosedene is a and light mid terraced property in a sitting which wi...,4,2019-06-17 16:02:19,"{'latitude': 51.2278, 'longitude': -2.89464}"
uk,somerset,4,realestate,property,nestoria_rank,1560787339,"Seymour House, Wellsway, BLACKFORD, Wedmore, Somerset",house,,buy,550000.0,£,550000.0,550000.0,fixed,0,51.2212,-2.83977,9,0,Detached,,4,0,Seymour house is a and versatile family home in a position and in a...,4,2019-06-17 16:02:19,"{'latitude': 51.2212, 'longitude': -2.83977}"
uk,somerset,4,realestate,property,nestoria_rank,1560787339,"Highway, Ash, Martock, Somerset, TA12",house,Greenslade Taylor Hunt,buy,365000.0,£,365000.0,365000.0,fixed,0,50.984,-2.76109,9,0,"Detached, Freehold",,3,0,A ly presented detached three bedroom property enjoying fine views ...,4,2019-06-17 16:02:19,"{'latitude': 50.984, 'longitude': -2.76109}"
uk,somerset,4,realestate,property,nestoria_rank,1560787339,"Langford, North Somerset",land,David James,buy,250000.0,£,250000.0,250000.0,fixed,0,51.3415,-2.78486,9,0,,,,0,An opportunity to purchase a prime building plot with outline plann...,2,2019-06-17 16:02:19,"{'latitude': 51.3415, 'longitude': -2.78486}"
uk,somerset,4,realestate,property,nestoria_rank,1560787339,"Wheddon Cross, Exmoor, Somerset, TA24",house,Stags,buy,625000.0,£,625000.0,625000.0,fixed,0,51.1422,-3.54952,9,0,"Detached, Garden",,4,0,A detached 4 bedroom house enjoying far reaching rural views with g...,3,2019-06-17 16:02:19,"{'latitude': 51.1422, 'longitude': -3.54952}"
uk,somerset,4,realestate,property,nestoria_rank,1560787339,"Hillgrove Road, Priddy, Nr Wells, Somerset, BA5",land,Greenslade Taylor Hunt,buy,280000.0,£,280000.0,280000.0,fixed,0,51.2474,-2.64615,9,0,,,,0,"35.2 acres of agricultural land at hillgrove road, priddy, nr wells...",2,2019-06-17 16:02:19,"{'latitude': 51.2474, 'longitude': -2.64615}"
uk,somerset,4,realestate,property,nestoria_rank,1560787339,"Claycastle, Haselbury Plucknett, Crewkerne, Somerset, TA18",house,Greenslade Taylor Hunt,buy,435000.0,£,435000.0,435000.0,fixed,0,50.8934,-2.75077,9,0,"Detached, Garden, Double Bedroom, Garage, Reception",,4,0,A four double bedroom detached family home with three reception roo...,4,2019-06-17 16:02:19,"{'latitude': 50.8934, 'longitude': -2.75077}"
uk,somerset,4,realestate,property,nestoria_rank,1560787339,"Burton Row, Brent Knoll, Highbridge, Somerset, TA9",house,Greenslade Taylor Hunt,buy,575000.0,£,575000.0,575000.0,fixed,0,51.2613,-2.96191,9,0,"Detached, Freehold, Double Garage, Cottage",,4,0,"This most characterful, detached, stone built 4 bedroom country cot...",5,2019-06-17 16:02:19,"{'latitude': 51.2613, 'longitude': -2.96191}"
uk,somerset,4,realestate,property,nestoria_rank,1560787339,"Crawter Drive, Porlock, Minehead, Somerset, TA24",house,,buy,212500.0,£,212500.0,212500.0,fixed,0,51.2069,-3.59352,9,0,"Freehold, Garden, Semi-Detached, Garage",,3,0,A well maintained three bedroom semi detached house along with gard...,3,2019-06-17 16:02:19,"{'latitude': 51.2069, 'longitude': -3.59352}"
uk,somerset,5,realestate,property,nestoria_rank,1560787345,"Church Lane, Hutton, Weston-super-Mare, North Somerset. BS24",house,,buy,330000.0,£,330000.0,330000.0,fixed,0,51.3237,-2.93009,9,0,"Detached, No Chain, Garage",,3,0,Detached house. Three/four beds. Two/three recse you looking for a ...,4,2019-06-17 16:02:25,"{'latitude': 51.3237, 'longitude': -2.93009}"
uk,somerset,5,realestate,property,nestoria_rank,1560787345,"Langaller, Taunton, Somerset, TA2",house,Greenslade Taylor Hunt,buy,1250000.0,£,1250000.0,1250000.0,fixed,0,51.0365,-3.04582,9,0,"Detached, Freehold, Garden, En suite, Grade II, Listed",,10,0,An 15th century grade ii listed formal hall house providing extensi...,7,2019-06-17 16:02:25,"{'latitude': 51.0365, 'longitude': -3.04582}"
uk,somerset,5,realestate,property,nestoria_rank,1560787345,"Woolmersdon, North Petherton, Bridgwater, Somerset, TA5",house,Stags,buy,1500000.0,£,1500000.0,1500000.0,fixed,0,51.1012,-3.02511,9,0,"Detached, Garden, Grade II, Garage, Reception, Georgian, Listed",4,5,0,A ly presented grade ii listed georgian house with period features ...,26,2019-06-17 16:02:25,"{'latitude': 51.1012, 'longitude': -3.02511}"
uk,somerset,5,realestate,property,nestoria_rank,1560787345,"Newton Road, North Petherton, Bridgwater, Somerset, TA6",house,Greenslade Taylor Hunt,buy,395000.0,£,395000.0,395000.0,fixed,0,51.0877,-3.01018,9,0,"Freehold, Garden, Semi-Detached, No Chain, Cottage",,4,0,An ly presented attached period cottage set in gardens on the edge ...,8,2019-06-17 16:02:25,"{'latitude': 51.0877, 'longitude': -3.01018}"
uk,somerset,5,realestate,property,nestoria_rank,1560787345,"Brimgrove Lane, Shepton Beauchamp, Ilminster, Somerset, TA19",house,Stags,buy,400000.0,£,400000.0,400000.0,fixed,0,50.9541,-2.8439,9,0,"Detached, Garden, Garage",,4,0,A ly presented detached four bedroom home in a village location wit...,5,2019-06-17 16:02:25,"{'latitude': 50.9541, 'longitude': -2.8439}"
uk,somerset,5,realestate,property,nestoria_rank,1560787345,"Burnham Level, Burnham On Sea, Somerset, TA9",land,Greenslade Taylor Hunt,buy,65000.0,£,65000.0,65000.0,fixed,0,51.2297,-2.96984,9,0,,,,0,"9.04 acres of agricultural pasture land on burnham level, burnham o...",4,2019-06-17 16:02:25,"{'latitude': 51.2297, 'longitude': -2.96984}"
uk,somerset,5,realestate,property,nestoria_rank,1560787345,"Bishopswood, Chard, Somerset, TA20",house,Stags,buy,749000.0,£,749000.0,749000.0,fixed,0,50.8992,-3.06356,9,0,"Detached, Garden, Reception",,4,0,A detached farmhouse situated in a rural location with approximatel...,5,2019-06-17 16:02:25,"{'latitude': 50.8992, 'longitude': -3.06356}"
uk,somerset,5,realestate,property,nestoria_rank,1560787345,"Agricultural Pasture Land, Pillmoor Lane, Isleport, HIGHBRIDGE, Somerset, TA9",land,Greenslade Taylor Hunt,buy,130000.0,£,130000.0,130000.0,fixed,0,51.2231,-2.9371,9,0,,,,0,13.56 acres of agricultural pasture land strategically positioned o...,4,2019-06-17 16:02:25,"{'latitude': 51.2231, 'longitude': -2.9371}"
uk,somerset,5,realestate,property,nestoria_rank,1560787345,"St. Thomas Mews, North Road, Wells, Somerset, BA5",house,Greenslade Taylor Hunt,buy,359950.0,£,359950.0,359950.0,fixed,0,51.2136,-2.63874,9,0,"No Chain, Terraced, Garage, Modern",,3,0,"No onward chain. A modern and townhouse, conveniently located in a ...",4,2019-06-17 16:02:25,"{'latitude': 51.2136, 'longitude': -2.63874}"
uk,somerset,5,realestate,property,nestoria_rank,1560787345,"Tower View, Horsington, Templecombe, Somerset, BA8",house,Greenslade Taylor Hunt,buy,235000.0,£,235000.0,235000.0,fixed,0,51.0165,-2.43571,9,0,"Needs Modernisation, Semi-Detached, No Chain, Parking",,3,0,"A most three bedroom semi detached home in need of modernisation, o...",3,2019-06-17 16:02:25,"{'latitude': 51.0165, 'longitude': -2.43571}"
uk,somerset,5,realestate,property,nestoria_rank,1560787345,"Bishopswood, Chard, Somerset, TA20",house,Greenslade Taylor Hunt,buy,375000.0,£,375000.0,375000.0,fixed,0,50.9095,-3.05893,9,0,Detached,,3,0,A 3 bedroom detached house with glorious views in a desirable villa...,5,2019-06-17 16:02:25,"{'latitude': 50.9095, 'longitude': -3.05893}"
uk,somerset,5,realestate,property,nestoria_rank,1560787345,"Rivers Road, Yeovil, Somerset, BA21",house,Greenslade Taylor Hunt,buy,200000.0,£,200000.0,200000.0,fixed,0,50.9562,-2.61817,9,0,"Garden, Semi-Detached, Garage, Bungalow",,2,0,"A large, two bedroom, semi-detached bungalow located in a convenien...",4,2019-06-17 16:02:25,"{'latitude': 50.9562, 'longitude': -2.61817}"
uk,somerset,5,realestate,property,nestoria_rank,1560787345,"Liddymore Road, Watchet, Somerset TA23",house,Wilkie May & Tuckwood,buy,279950.0,£,279950.0,279950.0,fixed,0,51.1794,-3.32594,9,0,"Garden, Semi-Detached, Garage",,3,0,Viewings highly recommended a tastefully modernised and incredibly ...,5,2019-06-17 16:02:25,"{'latitude': 51.1794, 'longitude': -3.32594}"
uk,somerset,5,realestate,property,nestoria_rank,1560787345,"Collett Road, Norton Fitzwarren, Taunton, Somerset, TA2",house,Greenslade Taylor Hunt,buy,385000.0,£,385000.0,385000.0,fixed,0,51.0299,-3.13695,9,0,"Detached, Freehold, Garden, Garage",,5,0,A ly presented five bedroom detached house built in recent years by...,7,2019-06-17 16:02:25,"{'latitude': 51.0299, 'longitude': -3.13695}"
uk,somerset,5,realestate,property,nestoria_rank,1560787345,"Cannards Grave, Shepton Mallet, Somerset, BA4",house,Greenslade Taylor Hunt,buy,599500.0,£,599500.0,599500.0,fixed,0,51.1752,-2.53574,9,0,"Detached, Garden, En suite, Double Bedroom, Garage",,6,0,"A country farmhouse with six double bedrooms , annexe with two furt...",4,2019-06-17 16:02:25,"{'latitude': 51.1752, 'longitude': -2.53574}"
uk,somerset,6,realestate,property,nestoria_rank,1560787347,"West View, Creech St Michael, Taunton, Somerset, TA3",house,Stags,buy,275000.0,£,275000.0,275000.0,fixed,0,51.0303,-3.03959,9,0,"Garden, Semi-Detached, Refurbished, Garage",,4,0,Open house saturday 15th june 10am 12pm. A well refurbished and ext...,8,2019-06-17 16:02:27,"{'latitude': 51.0303, 'longitude': -3.03959}"
uk,somerset,6,realestate,property,nestoria_rank,1560787347,"Goathurst, Bridgwater, Somerset, TA5",house,Stags,buy,595000.0,£,595000.0,595000.0,fixed,0,51.103,-3.06526,9,0,"Garden, Semi-Detached, En suite, Double Garage, Kitchen, Swimming Pool, Reception",,5,0,An former rectory situated in this unspoilt village with landscaped...,31,2019-06-17 16:02:27,"{'latitude': 51.103, 'longitude': -3.06526}"
uk,somerset,6,realestate,property,nestoria_rank,1560787347,"Seavington St Michael, Ilminster, Somerset, TA19",house,Greenslade Taylor Hunt,buy,350000.0,£,350000.0,350000.0,fixed,0,50.9335,-2.84169,9,0,Semi-Detached,,3,0,Horseshoes is situated in a central position within this developmen...,5,2019-06-17 16:02:27,"{'latitude': 50.9335, 'longitude': -2.84169}"
uk,somerset,6,realestate,property,nestoria_rank,1560787347,"Church Street, Coleford, Radstock, Somerset, BA3",house,Knight Frank,buy,450000.0,£,450000.0,450000.0,fixed,0,51.238045,-2.448858,9,0,Detached,,4,0,"A period 4 bedroom home with rural views. For sale, situated in the...",3,2019-06-17 16:02:27,"{'latitude': 51.238045, 'longitude': -2.448858}"
uk,somerset,6,realestate,property,nestoria_rank,1560787347,"1 Withy Grove Cottages, Withy Grove, EAST HUNTSPILL, Somerset",house,,buy,395000.0,£,395000.0,395000.0,fixed,0,51.1943,-2.962,9,0,"Semi-Detached, Double Bedroom",,3,0,This three double bedroom property has been upgraded and improved t...,6,2019-06-17 16:02:27,"{'latitude': 51.1943, 'longitude': -2.962}"
uk,somerset,6,realestate,property,nestoria_rank,1560787347,"Frost Lane, Ilton, Ilminster, Somerset, TA19",house,Greenslade Taylor Hunt,buy,595000.0,£,595000.0,595000.0,fixed,0,50.9527,-2.92171,9,0,"Detached, Garden, Grade II, Modern",,4,0,Situated in a village location with ly stocked and landscaped sunny...,6,2019-06-17 16:02:27,"{'latitude': 50.9527, 'longitude': -2.92171}"
uk,somerset,6,realestate,property,nestoria_rank,1560787347,"East Lyng, Taunton, Somerset, TA3",house,Greenslade Taylor Hunt,buy,390000.0,£,390000.0,390000.0,fixed,0,51.056,-2.95168,9,0,"Freehold, Garden, Semi-Detached, Grade II, Parking, Georgian, Listed",,3,0,An grade ii listed georgian semi-detached residence with newly reno...,14,2019-06-17 16:02:27,"{'latitude': 51.056, 'longitude': -2.95168}"
uk,somerset,6,realestate,property,nestoria_rank,1560787347,"Ham, Creech St Michael, Taunton, Somerset, TA3",house,Stags,buy,625000.0,£,625000.0,625000.0,fixed,0,51.0216,-3.01728,9,0,"Detached, Garden, En suite, Grade II, Garage, Kitchen, Reception, Listed",,4,0,The most grade ii listed house with landscaped gardens. The propert...,25,2019-06-17 16:02:27,"{'latitude': 51.0216, 'longitude': -3.01728}"
uk,somerset,6,realestate,property,nestoria_rank,1560787347,"Fennel Way, YEOVIL, Somerset, BA22",house,,buy,239950.0,£,239950.0,239950.0,fixed,0,50.94247,-2.680597,9,0,"Detached, Garden, Double Bedroom, Parking, Cul-de-Sac",,4,0,"A well-presented, detached, three/four double bedroom house situate...",5,2019-06-17 16:02:27,"{'latitude': 50.94247, 'longitude': -2.680597}"
uk,somerset,6,realestate,property,nestoria_rank,1560787347,"Waterleaze, Taunton, Somerset, TA2",house,Stags,buy,435000.0,£,435000.0,435000.0,fixed,0,51.0304,-3.07355,9,0,"Detached, Garden, En suite, Double Garage, Conservatory, Kitchen",,5,0,A detached family house providing accommodation arranged over three...,27,2019-06-17 16:02:27,"{'latitude': 51.0304, 'longitude': -3.07355}"
uk,somerset,6,realestate,property,nestoria_rank,1560787347,"Brocks Mount, Stoke-sub-hamdon, Somerset, TA14",house,Stags,buy,435000.0,£,435000.0,435000.0,fixed,0,50.9548,-2.75216,9,0,"Detached, Modern",,4,0,Modern 4 bedroom home in village location with far reaching country...,5,2019-06-17 16:02:27,"{'latitude': 50.9548, 'longitude': -2.75216}"
uk,somerset,6,realestate,property,nestoria_rank,1560787347,"Woolmersdon, North Petherton, Bridgwater, Somerset, TA5",house,Greenslade Taylor Hunt,buy,375000.0,£,375000.0,375000.0,fixed,0,51.1012,-3.02511,9,0,"Detached, Freehold, Garden, Garage, Bungalow",,4,0,A well-presented detached chalet bungalow situated in a rural locat...,40,2019-06-17 16:02:27,"{'latitude': 51.1012, 'longitude': -3.02511}"
uk,somerset,6,realestate,property,nestoria_rank,1560787347,"Stoke Road, Taunton, Somerset, TA1",house,Stags,buy,350000.0,£,350000.0,350000.0,fixed,0,51.0042,-3.08506,9,0,"Detached, No Chain, Garage, Bungalow, Reception",,3,0,A well-proportioned detached chalet bungalow situated in a location...,12,2019-06-17 16:02:27,"{'latitude': 51.0042, 'longitude': -3.08506}"
uk,somerset,6,realestate,property,nestoria_rank,1560787347,"Thurloxton, Taunton, Somerset, TA2",house,Stags,buy,539950.0,£,539950.0,539950.0,fixed,0,51.0625,-3.03542,9,0,"Detached, Garden, Double Garage",,4,0,A high quality detached house with flexible accommodation. The prop...,52,2019-06-17 16:02:27,"{'latitude': 51.0625, 'longitude': -3.03542}"
uk,somerset,6,realestate,property,nestoria_rank,1560787347,"Charlynch Road, Spaxton, Bridgwater, Somerset, TA5",house,Greenslade Taylor Hunt,buy,300000.0,£,300000.0,300000.0,fixed,0,51.1299,-3.09569,9,0,"Detached, Freehold, Garden, Needs Modernisation, Double Garage, No Chain, Bungalow",,3,0,A detached bungalow in need of complete refurbishment. Good size ga...,37,2019-06-17 16:02:27,"{'latitude': 51.1299, 'longitude': -3.09569}"
uk,somerset,7,realestate,property,nestoria_rank,1560787348,"Maunsel Road, North Newton, Bridgwater, Somerset, TA7",house,Greenslade Taylor Hunt,buy,365000.0,£,365000.0,365000.0,fixed,0,51.0732,-3.00227,9,0,"Detached, Cottage",,4,0,A detached character cottage with separate annexe situated within a...,12,2019-06-17 16:02:28,"{'latitude': 51.0732, 'longitude': -3.00227}"
uk,somerset,7,realestate,property,nestoria_rank,1560787348,"Goathurst, Bridgwater, Somerset, TA5",house,Greenslade Taylor Hunt,buy,285000.0,£,285000.0,285000.0,fixed,0,51.1025,-3.0618,9,0,"Detached, Freehold, Garden, No Chain, Garage, Bungalow",,3,0,"A detached bungalow with garage, driveway and enclosed rear garden....",46,2019-06-17 16:02:28,"{'latitude': 51.1025, 'longitude': -3.0618}"
uk,somerset,7,realestate,property,nestoria_rank,1560787348,"North Street, Williton, Taunton, Somerset, TA4",house,,buy,239950.0,£,239950.0,239950.0,fixed,0,51.1624,-3.32168,9,0,"Detached, Garden, No Chain, Garage, Bungalow",,3,0,A well presented 3 bedroom bungalow in quiet location only a few mi...,6,2019-06-17 16:02:28,"{'latitude': 51.1624, 'longitude': -3.32168}"
uk,somerset,7,realestate,property,nestoria_rank,1560787348,"Wembdon Road, Bridgwater, Somerset, TA6 7",house,,buy,267500.0,£,267500.0,267500.0,fixed,0,51.1274,-3.01476,9,0,"Garden, Terraced, Victorian, Double Bedroom, Parking",,4,0,An period property located with access to bridgwater town centre of...,18,2019-06-17 16:02:28,"{'latitude': 51.1274, 'longitude': -3.01476}"
uk,somerset,7,realestate,property,nestoria_rank,1560787348,"Brockley Crescent, Bleadon, Weston-super-Mare, North Somerset. BS24",house,,buy,230000.0,£,230000.0,230000.0,fixed,0,51.3197,-2.9623,9,0,"Detached, Garage, Bungalow",,2,0,Situated on bleadon hill. Detached bungalow. Two bedrooms. In need ...,5,2019-06-17 16:02:28,"{'latitude': 51.3197, 'longitude': -2.9623}"
uk,somerset,7,realestate,property,nestoria_rank,1560787348,"Forester Close, Wembdon, Bridgwater, Somerset, TA6",house,Greenslade Taylor Hunt,buy,215000.0,£,215000.0,215000.0,fixed,0,51.130627,-3.0183945,9,0,"Freehold, Garden, Terraced, Garage",,4,0,"A well presented four bed town house with a low maintenance garden,...",15,2019-06-17 16:02:28,"{'latitude': 51.130627, 'longitude': -3.0183945}"
uk,somerset,7,realestate,property,nestoria_rank,1560787348,"Yallands Hill, Monkton Heathfield, Taunton, Somerset",house,Newton King,buy,275000.0,£,275000.0,275000.0,fixed,0,51.0346,-3.06905,9,0,"Semi-Detached, No Chain, Reception",2,3,0,3 bedroom semi detached family home situated in a great location wi...,31,2019-06-17 16:02:28,"{'latitude': 51.0346, 'longitude': -3.06905}"
uk,somerset,7,realestate,property,nestoria_rank,1560787348,"Sand Farm Lane, Sandbay, Weston-super-Mare, North Somerset. BS22",house,,buy,425000.0,£,425000.0,425000.0,fixed,0,51.3791,-2.95943,9,0,"Detached, Garden, Double Garage, No Chain, Conservatory, Bungalow",,4,0,Three/four beds. Two/three recs. Conservatory. If you are looking f...,5,2019-06-17 16:02:28,"{'latitude': 51.3791, 'longitude': -2.95943}"
uk,somerset,7,realestate,property,nestoria_rank,1560787348,"Parkfield Close, North Petherton, Bridgwater, Somerset, TA6",house,Greenslade Taylor Hunt,buy,325000.0,£,325000.0,325000.0,fixed,0,51.0942,-3.00625,9,0,"Detached, Conservatory, Garage",,4,0,A well-presented and detached residence situated in the heart of no...,23,2019-06-17 16:02:28,"{'latitude': 51.0942, 'longitude': -3.00625}"
uk,somerset,7,realestate,property,nestoria_rank,1560787348,"Kingston St. Mary, Taunton, Somerset, TA2",house,Stags,buy,335000.0,£,335000.0,335000.0,fixed,0,51.0611,-3.11393,9,0,"Garden, Semi-Detached, Garage, Reception, Georgian",,2,0,"A georgian house with a long south facing garden, extensive parking...",24,2019-06-17 16:02:28,"{'latitude': 51.0611, 'longitude': -3.11393}"
uk,somerset,7,realestate,property,nestoria_rank,1560787348,"Town Close, North Curry, Taunton, Somerset, TA3",house,Stags,buy,185000.0,£,185000.0,185000.0,fixed,0,51.0207,-2.97516,9,0,"Garden, Semi-Detached, No Chain, Terraced, Kitchen, Reception",,3,0,"A mid-terraced house situated in a tucked away location, just off t...",13,2019-06-17 16:02:28,"{'latitude': 51.0207, 'longitude': -2.97516}"
uk,somerset,7,realestate,property,nestoria_rank,1560787348,"Norfolk Road, Off Drove Road, Weston-super-Mare, North Somerset. BS23",house,,buy,175000.0,£,175000.0,175000.0,fixed,0,51.3387,-2.96806,9,0,"Semi-Detached, No Chain, Conservatory, Parking",,2,0,Well presented semi detached house. Two beds. Lounge & conservatory...,5,2019-06-17 16:02:28,"{'latitude': 51.3387, 'longitude': -2.96806}"
uk,somerset,7,realestate,property,nestoria_rank,1560787348,"Tintinhull Road, Chilthorne Domer, Somerset, BA22",house,Stags,buy,900000.0,£,900000.0,900000.0,fixed,0,50.9656,-2.68328,9,0,"Detached, Garden, Georgian",,6,0,An georgian parsonage with versatile accommodation. Not listed. Set...,5,2019-06-17 16:02:28,"{'latitude': 50.9656, 'longitude': -2.68328}"
uk,somerset,7,realestate,property,nestoria_rank,1560787348,"Marden Grove, Taunton, Somerset",house,Newton King,buy,249995.0,£,249995.0,249995.0,fixed,0,51.0116,-3.0718,9,0,"Detached, Conservatory, Garage, Kitchen",,3,0,3 bedroom link-detached home in marden grove taunton. Downstairs co...,12,2019-06-17 16:02:28,"{'latitude': 51.0116, 'longitude': -3.0718}"
uk,somerset,7,realestate,property,nestoria_rank,1560787348,"Lonsdale Road, Cannington, Somerset",house,,buy,280000.0,£,280000.0,280000.0,fixed,0,51.1482,-3.05848,9,0,"Detached, No Chain, Double Bedroom, Kitchen, Bungalow",3,3,0,Located within the sought-after village of cannington is this detac...,82,2019-06-17 16:02:28,"{'latitude': 51.1482, 'longitude': -3.05848}"
uk,somerset,8,realestate,property,nestoria_rank,1560787351,"Rutters Lane, Ilminster, Somerset, TA19",house,Greenslade Taylor Hunt,buy,145000.0,£,145000.0,145000.0,fixed,0,50.9287,-2.91398,9,0,"Leasehold, Conversion",,1,0,"A one bedroom ground floor conversion from a former coach house, pr...",6,2019-06-17 16:02:31,"{'latitude': 50.9287, 'longitude': -2.91398}"
uk,somerset,8,realestate,property,nestoria_rank,1560787351,"Worthy Lane, Creech St Michael, Taunton, Somerset, TA3",house,Stags,buy,625000.0,£,625000.0,625000.0,fixed,0,51.0322,-3.02838,9,0,"Detached, Garden, En suite, Garage, Kitchen, Cottage",,4,0,"A detached period cottage with self contained one bedroom annex, si...",52,2019-06-17 16:02:31,"{'latitude': 51.0322, 'longitude': -3.02838}"
uk,somerset,8,realestate,property,nestoria_rank,1560787351,"Ashwick, Oakhill, Somerset, BA3",house,Crisp Cowley,buy,850000.0,£,850000.0,850000.0,fixed,0,51.2337,-2.5349,9,0,"Detached, Modern",,5,0,A most extraordinary opportunity to acquire a development site with...,4,2019-06-17 16:02:31,"{'latitude': 51.2337, 'longitude': -2.5349}"
uk,somerset,8,realestate,property,nestoria_rank,1560787351,"Taunton Road, North Petherton, Bridgwater, Somerset, TA6",house,Greenslade Taylor Hunt,buy,325000.0,£,325000.0,325000.0,fixed,0,51.0779,-3.0197,9,0,"Freehold, Garden, Semi-Detached",,3,0,A ly presented semi-detached period house which occupies an elevate...,59,2019-06-17 16:02:31,"{'latitude': 51.0779, 'longitude': -3.0197}"
uk,somerset,8,realestate,property,nestoria_rank,1560787351,"High Street, Axbridge, Somerset, BS26",house,Savills,buy,650000.0,£,650000.0,650000.0,fixed,0,51.28745,-2.81856,9,0,Terraced,,7,0,An important and period home in the heart of axbridge,5,2019-06-17 16:02:31,"{'latitude': 51.28745, 'longitude': -2.81856}"
uk,somerset,8,realestate,property,nestoria_rank,1560787351,"Langaller, Taunton, Somerset, TA2",house,Stags,buy,835000.0,£,835000.0,835000.0,fixed,0,51.0365,-3.04582,9,0,"Detached, Kitchen, Reception",,6,0,"A brand new house designed and built to a high specification, situa...",20,2019-06-17 16:02:31,"{'latitude': 51.0365, 'longitude': -3.04582}"
uk,somerset,8,realestate,property,nestoria_rank,1560787351,"Port Stanley Close, Norton Fitzwarren, Taunton, Somerset, TA2",house,Greenslade Taylor Hunt,buy,359950.0,£,359950.0,359950.0,fixed,0,51.027485,-3.1378453,9,0,"Detached, Freehold, Garden, Garage",,4,0,An ly presented four bedroomed detached house with a number of rece...,15,2019-06-17 16:02:31,"{'latitude': 51.027485, 'longitude': -3.1378453}"
uk,somerset,8,realestate,property,nestoria_rank,1560787351,"Lodes Lane, Kingston St. Mary, Taunton, Somerset, TA2",house,,buy,950000.0,£,950000.0,950000.0,fixed,0,51.0621,-3.11282,9,0,"Detached, Garden",,4,0,"A ly presented contemporary house, with guest annexe in show standa...",15,2019-06-17 16:02:31,"{'latitude': 51.0621, 'longitude': -3.11282}"
uk,somerset,8,realestate,property,nestoria_rank,1560787351,"Sandford Hill, Wembdon, Bridgwater, Somerset, TA5",house,Greenslade Taylor Hunt,buy,750000.0,£,750000.0,750000.0,fixed,0,51.136,-3.04318,9,0,"Detached, Freehold, Garden, Grade II, No Chain, Listed",,5,0,"A historic grade ii listed, detached period residence situated in a...",57,2019-06-17 16:02:31,"{'latitude': 51.136, 'longitude': -3.04318}"
uk,somerset,8,realestate,property,nestoria_rank,1560787351,"West Monkton, Taunton, Somerset, TA2",house,Stags,buy,525000.0,£,525000.0,525000.0,fixed,0,51.0482,-3.05595,9,0,"Detached, Garden, En suite, Kitchen, Bungalow",,4,0,A unique and well-proportioned detached bungalow offering versatile...,68,2019-06-17 16:02:31,"{'latitude': 51.0482, 'longitude': -3.05595}"
uk,somerset,8,realestate,property,nestoria_rank,1560787351,"The Octagon, Taunton, Somerset, TA1",flat,Greenslade Taylor Hunt,buy,139950.0,£,139950.0,139950.0,fixed,0,51.0169,-3.10032,9,0,"Leasehold, Parking",,2,0,"A first floor 2 bedroomed apartment with parking space, located in ...",11,2019-06-17 16:02:31,"{'latitude': 51.0169, 'longitude': -3.10032}"
uk,somerset,8,realestate,property,nestoria_rank,1560787351,"Wincanton, Somerset, BA9 - Fireplace",house,,buy,280000.0,£,280000.0,280000.0,fixed,0,51.0537,-2.40169,9,0,"Detached, Garden, Fireplace, Parking, Cottage",,3,0,An individual and three bedroom detached period cottage situated on...,4,2019-06-17 16:02:31,"{'latitude': 51.0537, 'longitude': -2.40169}"
uk,somerset,8,realestate,property,nestoria_rank,1560787351,"Hardys Close, Bathpool, Taunton, Somerset, TA2",house,Greenslade Taylor Hunt,buy,289950.0,£,289950.0,289950.0,fixed,0,51.036934,-3.051121,9,0,"Detached, Freehold, Garden, Detached Garage",,3,0,"A 3 bedroom detached house with garden room, detached garage and of...",76,2019-06-17 16:02:31,"{'latitude': 51.036934, 'longitude': -3.051121}"
uk,somerset,8,realestate,property,nestoria_rank,1560787351,"Kingston St. Mary, Taunton, Somerset",house,Strutt & Parker,buy,995000.0,£,995000.0,995000.0,fixed,0,51.06322,-3.1157,9,0,"Detached, Garden, Grade II, Listed",,7,0,View our virtual tour. A grade ii listed detached property with ove...,24,2019-06-17 16:02:31,"{'latitude': 51.06322, 'longitude': -3.1157}"
uk,somerset,8,realestate,property,nestoria_rank,1560787351,"Charlotte Court, Highbridge Quay, Highbridge, Somerset, TA9",flat,Greenslade Taylor Hunt,buy,92500.0,£,92500.0,92500.0,fixed,0,51.2187,-2.97674,9,0,"Leasehold, Purpose Built, Modern, Parking",2,2,0,"A purpose-built 2 bed, 2 bath ground floor apartment, forming part ...",10,2019-06-17 16:02:31,"{'latitude': 51.2187, 'longitude': -2.97674}"
uk,somerset,9,realestate,property,nestoria_rank,1560787355,"Windmill Hill, North Curry, Somerset",house,Newton King,buy,220000.0,£,220000.0,220000.0,fixed,0,51.0204,-2.97407,9,0,"Detached, No Chain, Cottage",,3,0,3 bedroom period detached cottage situated in the village of north ...,13,2019-06-17 16:02:35,"{'latitude': 51.0204, 'longitude': -2.97407}"
uk,somerset,9,realestate,property,nestoria_rank,1560787355,"Halse, Taunton, Somerset, TA4",house,Stags,buy,390000.0,£,390000.0,390000.0,fixed,0,51.0444,-3.22929,9,0,"Detached, Garden, En suite, Grade II, Detached Garage, Kitchen, Listed",,3,0,An grade ii listed former lodge situated in the centre of this vill...,26,2019-06-17 16:02:35,"{'latitude': 51.0444, 'longitude': -3.22929}"
uk,somerset,9,realestate,property,nestoria_rank,1560787355,"Fore Street, Milverton, Taunton, Somerset, TA4",house,Stags,buy,795000.0,£,795000.0,795000.0,fixed,0,51.0245,-3.25403,9,0,"Garden, Semi-Detached, Grade II, Cottage, Reception, Georgian, Listed",2,6,0,A ly presented grade ii listed georgian home in the centre of a vil...,16,2019-06-17 16:02:35,"{'latitude': 51.0245, 'longitude': -3.25403}"
uk,somerset,9,realestate,property,nestoria_rank,1560787355,"Stanmoor Road, Burrowbridge, Bridgwater, Somerset, TA7",house,Greenslade Taylor Hunt,buy,220000.0,£,220000.0,220000.0,fixed,0,51.0607,-2.92779,9,0,"Freehold, Garden, Terraced, Garage, Cottage",,3,0,"Nestled in a terrace, dovedale is a three bedroom extended cottage ...",22,2019-06-17 16:02:35,"{'latitude': 51.0607, 'longitude': -2.92779}"
uk,somerset,9,realestate,property,nestoria_rank,1560787355,"West Newton, Bridgwater, Somerset, TA7",house,Stags,buy,599950.0,£,599950.0,599950.0,fixed,0,51.0607,-3.01692,9,0,"Detached, Garden, Garage, Reception",,5,0,A detached farmhouse set in a private rural location with an extens...,117,2019-06-17 16:02:35,"{'latitude': 51.0607, 'longitude': -3.01692}"
uk,somerset,9,realestate,property,nestoria_rank,1560787355,"Quantock Road, Bridgwater, Somerset, TA6",house,Greenslade Taylor Hunt,buy,295000.0,£,295000.0,295000.0,fixed,0,51.128,-3.0262,9,0,"Detached, Freehold, Garden, Garage",,3,0,An well presented three bedroom 1930's detached house with private ...,45,2019-06-17 16:02:35,"{'latitude': 51.128, 'longitude': -3.0262}"
uk,somerset,9,realestate,property,nestoria_rank,1560787355,"North Street, Milborne Port, Sherborne, Somerset, DT9",house,Greenslade Taylor Hunt,buy,400000.0,£,400000.0,400000.0,fixed,0,50.9673,-2.46149,9,0,"Detached, Garden, Bungalow, Parking",,4,0,A privately positioned 4 bedroom detached bungalow with ample parki...,4,2019-06-17 16:02:35,"{'latitude': 50.9673, 'longitude': -2.46149}"
uk,somerset,9,realestate,property,nestoria_rank,1560787355,"Westminster Way, Bridgwater, Somerset, TA6",house,Greenslade Taylor Hunt,buy,275000.0,£,275000.0,275000.0,fixed,0,51.147,-2.98469,9,0,"Detached, Freehold, Garden, Garage, Modern",,4,0,A well-presented detached residence built by david wilson homes to ...,24,2019-06-17 16:02:35,"{'latitude': 51.147, 'longitude': -2.98469}"
uk,somerset,9,realestate,property,nestoria_rank,1560787355,"Kingston Road, Taunton, Somerset, TA2",house,Greenslade Taylor Hunt,buy,475000.0,£,475000.0,475000.0,fixed,0,51.0324,-3.10911,9,0,"Detached, Freehold, Listed",,5,0,"A most 5 bedroomed character grade ll listed somerset longhouse, no...",17,2019-06-17 16:02:35,"{'latitude': 51.0324, 'longitude': -3.10911}"
uk,somerset,9,realestate,property,nestoria_rank,1560787355,"West Bagborough, Taunton, Somerset, TA4",house,Stags,buy,470000.0,£,470000.0,470000.0,fixed,0,51.0935,-3.18489,9,0,"Detached, Garden, En suite, No Chain, Kitchen, Cottage, Reception",,4,0,An individual period cottage of immense charm situated in the centr...,43,2019-06-17 16:02:35,"{'latitude': 51.0935, 'longitude': -3.18489}"
uk,somerset,9,realestate,property,nestoria_rank,1560787355,"Dunkerton, BATH, Somerset, BA2",house,,buy,325000.0,£,325000.0,325000.0,fixed,0,51.334526,-2.4087,9,0,"Detached, Garden, No Chain, Off Street Parking, Patio, Cottage",2,3,0,A three bedroom detached cottage with views over the cam valley. Th...,4,2019-06-17 16:02:35,"{'latitude': 51.334526, 'longitude': -2.4087}"
uk,somerset,9,realestate,property,nestoria_rank,1560787355,"Hampstead Drive, Bridgwater, Somerset, TA6",house,Greenslade Taylor Hunt,buy,215000.0,£,215000.0,215000.0,fixed,0,51.1481,-2.98197,9,0,"Freehold, Garden, Semi-Detached, Garage",,3,0,A ly presented semi-detached town house built by barratt homes in 2...,16,2019-06-17 16:02:35,"{'latitude': 51.1481, 'longitude': -2.98197}"
uk,somerset,9,realestate,property,nestoria_rank,1560787355,"Aller, Langport, Somerset, TA10",house,Stags,buy,725000.0,£,725000.0,725000.0,fixed,0,51.0608,-2.85771,9,0,"Garden, Semi-Detached, Grade II, Double Garage, Double Bedroom, Kitchen, Reception, Listed",,6,0,An grade ii listed former rectory with gardens. The property compri...,31,2019-06-17 16:02:35,"{'latitude': 51.0608, 'longitude': -2.85771}"
uk,somerset,9,realestate,property,nestoria_rank,1560787355,"South Road, Weston-super-Mare, North Somerset. BS23",flat,,buy,125000.0,£,125000.0,125000.0,fixed,0,51.3555,-2.99197,9,0,"Garden, No Chain",,3,0,Ground floor flat. Three beds. Lounge. Greatfirst time buy/investme...,5,2019-06-17 16:02:35,"{'latitude': 51.3555, 'longitude': -2.99197}"
uk,somerset,9,realestate,property,nestoria_rank,1560787355,"South Road, Weston-super-Mare, North Somerset. BS23",flat,,buy,117500.0,£,117500.0,117500.0,fixed,0,51.3557,-2.9879,9,0,"No Chain, Double Bedroom",,1,0,Well presented top floor flat. Weston hillside. Double bedroom. Lou...,5,2019-06-17 16:02:35,"{'latitude': 51.3557, 'longitude': -2.9879}"
uk,somerset,10,realestate,property,nestoria_rank,1560787358,"Wood Street, Milverton, Taunton, Somerset, TA4",house,Greenslade Taylor Hunt,buy,450000.0,£,450000.0,450000.0,fixed,0,51.0279,-3.25856,9,0,"Freehold, Garden, Semi-Detached, Grade II, Garage, Basement, Listed",,4,0,A grade ii listed four bedroom village house with useful basement r...,11,2019-06-17 16:02:38,"{'latitude': 51.0279, 'longitude': -3.25856}"
uk,somerset,10,realestate,property,nestoria_rank,1560787358,"Wheatleigh Close, Taunton, Somerset, TA1",house,Stags,buy,350000.0,£,350000.0,350000.0,fixed,0,51.0081,-3.11207,9,0,"Detached, Garden, Conservatory, Refurbished, Kitchen, Bungalow, Parking, Cul-de-Sac",,3,0,A refurbished detached bungalow situated in a small cul-de-sac clos...,78,2019-06-17 16:02:38,"{'latitude': 51.0081, 'longitude': -3.11207}"
uk,somerset,10,realestate,property,nestoria_rank,1560787358,"Bilberry Grove, Taunton, Somerset",house,Newton King,buy,174995.0,£,174995.0,174995.0,fixed,0,50.9997,-3.08455,9,0,"Terraced, Kitchen, Cul-de-Sac",,2,0,2 bedroom end terrace house situated in a quiet cul-de-sac location...,15,2019-06-17 16:02:38,"{'latitude': 50.9997, 'longitude': -3.08455}"
uk,somerset,10,realestate,property,nestoria_rank,1560787358,"Four Forks Lane, Spaxton, Bridgwater, Somerset, TA5",house,Greenslade Taylor Hunt,buy,189000.0,£,189000.0,189000.0,fixed,0,51.1268,-3.09873,9,0,"Freehold, Garden, Terraced, Parking",,2,0,A 2 bed mid-terrace property located in an period setting within th...,62,2019-06-17 16:02:38,"{'latitude': 51.1268, 'longitude': -3.09873}"
uk,somerset,10,realestate,property,nestoria_rank,1560787358,"Four Forks Lane, Spaxton, Bridgwater, Somerset, TA5",house,Greenslade Taylor Hunt,buy,189000.0,£,189000.0,189000.0,fixed,0,51.1268,-3.09873,9,0,"Freehold, Garden, Terraced, Parking, Cottage",,2,0,"A 2 bed end of terrace cottage with parking, garden and potential t...",62,2019-06-17 16:02:38,"{'latitude': 51.1268, 'longitude': -3.09873}"
uk,somerset,10,realestate,property,nestoria_rank,1560787358,"Larch Close, Bridgwater, Somerset, TA6",house,Greenslade Taylor Hunt,buy,72500.0,£,72500.0,72500.0,fixed,0,51.133,-2.97451,9,0,"Share of Freehold, Garden, Semi-Detached, Parking, Shared Ownership",,2,0,A semi-detached 50/50 shared ownership property. With garden and dr...,63,2019-06-17 16:02:38,"{'latitude': 51.133, 'longitude': -2.97451}"
uk,somerset,10,realestate,property,nestoria_rank,1560787358,"George Street, Taunton, Somerset, TA2",house,Greenslade Taylor Hunt,buy,224950.0,£,224950.0,224950.0,fixed,0,51.0275,-3.1024,9,0,"Garden, Semi-Detached, Off Street Parking, Reception",,3,0,A recently renovated semi detached 1950s property offering 3 bedroo...,46,2019-06-17 16:02:38,"{'latitude': 51.0275, 'longitude': -3.1024}"
uk,somerset,10,realestate,property,nestoria_rank,1560787358,"1 Barrow House Farm, Panborough, WELLS, Somerset",house,,buy,370000.0,£,370000.0,370000.0,fixed,0,51.2079,-2.75772,9,0,"Semi-Detached, Grade II, Listed",,4,0,A and four bedroom period property. This stone built grade ii liste...,6,2019-06-17 16:02:38,"{'latitude': 51.2079, 'longitude': -2.75772}"
uk,somerset,10,realestate,property,nestoria_rank,1560787358,"Cunningham Court, Taunton, Somerset, TA1",flat,Greenslade Taylor Hunt,buy,159000.0,£,159000.0,159000.0,fixed,0,51.023266,-3.0959473,9,0,"Leasehold, No Chain, Modern, Parking",,2,0,"A ly presented, modern, second floor apartment with parking and enj...",43,2019-06-17 16:02:38,"{'latitude': 51.023266, 'longitude': -3.0959473}"
uk,somerset,10,realestate,property,nestoria_rank,1560787358,"Norton Fitzwarren, Taunton, Somerset, TA2",house,Greenslade Taylor Hunt,buy,375000.0,£,375000.0,375000.0,fixed,0,51.0262,-3.15366,9,0,"Detached, Freehold, Garden, No Chain, Parking",,6,0,"A period farmhouse with just over 3,000sqft of accommodation togeth...",27,2019-06-17 16:02:38,"{'latitude': 51.0262, 'longitude': -3.15366}"
uk,somerset,10,realestate,property,nestoria_rank,1560787358,"Whitnell, Nether Stowey, Bridgwater, Somerset, TA5",house,Greenslade Taylor Hunt,buy,350000.0,£,350000.0,350000.0,fixed,0,51.154,-3.12527,9,0,"Detached, Freehold, Garden, No Chain, Bungalow",,4,0,"A large 4 bed detached bungalow occupying an , rural location with ...",20,2019-06-17 16:02:38,"{'latitude': 51.154, 'longitude': -3.12527}"
uk,somerset,10,realestate,property,nestoria_rank,1560787358,"Trull, Taunton, Somerset, TA3",house,Stags,buy,485000.0,£,485000.0,485000.0,fixed,0,50.9913,-3.12103,9,0,"Detached, Garden, Kitchen, Reception",,4,0,"A fully renovated & modernised chalet style property, situated in a...",15,2019-06-17 16:02:38,"{'latitude': 50.9913, 'longitude': -3.12103}"
uk,somerset,10,realestate,property,nestoria_rank,1560787358,"Main Road, West Huntspill, Highbridge, Somerset, TA9",house,Greenslade Taylor Hunt,buy,269950.0,£,269950.0,269950.0,fixed,0,51.2104,-2.98494,9,0,"Garden, Semi-Detached, No Chain, Victorian, Parking",,3,0,"This characterful, late victorian built, semi detached 2/3 bedroom ...",9,2019-06-17 16:02:38,"{'latitude': 51.2104, 'longitude': -2.98494}"
uk,somerset,10,realestate,property,nestoria_rank,1560787358,"Deaconsbrook, Wrantage, Taunton, Somerset",house,Newton King,buy,525000.0,£,525000.0,525000.0,fixed,0,50.9973,-2.99349,9,0,"Detached, Conversion",,4,0,Ly converted and ly restored detached chapel conversion situated in...,11,2019-06-17 16:02:38,"{'latitude': 50.9973, 'longitude': -2.99349}"
uk,somerset,10,realestate,property,nestoria_rank,1560787358,"Shoreditch Road, Taunton, Somerset, TA1",house,Stags,buy,269000.0,£,269000.0,269000.0,fixed,0,51.0008,-3.08643,9,0,"Shared Garden, Detached, Conservatory, Garage, Kitchen, Reception",,3,0,"An two bedroom house situated in fullands court, this prestigious r...",74,2019-06-17 16:02:38,"{'latitude': 51.0008, 'longitude': -3.08643}"
uk,somerset,11,realestate,property,nestoria_rank,1560787362,"Glenwood Gardens, Taunton, Somerset",house,,buy,310000.0,£,310000.0,310000.0,fixed,0,51.0366,-3.10453,9,0,"Detached, No Chain, Bungalow, Cul-de-Sac",,3,0,The property:standing in a small cul de sac on the far northern out...,101,2019-06-17 16:02:42,"{'latitude': 51.0366, 'longitude': -3.10453}"
uk,somerset,11,realestate,property,nestoria_rank,1560787362,"Coal Pit Lane, Stoke St. Michael, Near Oakhill, Somerset, BA3",house,Knight Frank,buy,850000.0,£,850000.0,850000.0,fixed,0,51.224983,-2.479513,9,0,"Detached, Modern",,5,0,"Detached 5 bedroom family home, on the edge of a village. For sale,...",4,2019-06-17 16:02:42,"{'latitude': 51.224983, 'longitude': -2.479513}"
uk,somerset,11,realestate,property,nestoria_rank,1560787362,"Bridgwater, Somerset, TA6 - Balcony",house,Greenslade Taylor Hunt,buy,330000.0,£,330000.0,330000.0,fixed,0,51.1225,-3.02582,9,0,"Semi-Detached, Balcony, Garage",,3,0,Come and see our show home and view homenow open thursday evenings ...,91,2019-06-17 16:02:42,"{'latitude': 51.1225, 'longitude': -3.02582}"
uk,somerset,11,realestate,property,nestoria_rank,1560787362,"Broadstone Lane, Hardington Mandeville, Yeovil, Somerset, BA22",house,Stags,buy,575000.0,£,575000.0,575000.0,fixed,0,50.9029,-2.69718,9,0,Detached,,4,0,An detached home set in this village. Epc band d,5,2019-06-17 16:02:42,"{'latitude': 50.9029, 'longitude': -2.69718}"
uk,somerset,11,realestate,property,nestoria_rank,1560787362,"Church Lane, Ruishton, Taunton, Somerset, TA3",house,Greenslade Taylor Hunt,buy,350000.0,£,350000.0,350000.0,fixed,0,51.0207,-3.05166,9,0,"Detached, Freehold, Refurbished, Cottage",,3,0,A most recently refurbished 3 bedroom detached cottage located on t...,52,2019-06-17 16:02:42,"{'latitude': 51.0207, 'longitude': -3.05166}"
uk,somerset,11,realestate,property,nestoria_rank,1560787362,"Ashton Road Farm, Ashton, WEDMORE, Somerset",house,,buy,2450000.0,£,2450000.0,2450000.0,fixed,0,51.245,-2.84204,9,0,Detached,,5,0,A small country estate with equestrian facilities set in somerset c...,6,2019-06-17 16:02:42,"{'latitude': 51.245, 'longitude': -2.84204}"
uk,somerset,11,realestate,property,nestoria_rank,1560787362,"Bridgwater, Somerset, TA6",house,Greenslade Taylor Hunt,buy,295000.0,£,295000.0,295000.0,fixed,0,51.1225,-3.02582,9,0,"Semi-Detached, Garage",,3,0,Come and see our show home and view homenow open thursday evenings ...,104,2019-06-17 16:02:42,"{'latitude': 51.1225, 'longitude': -3.02582}"
uk,somerset,11,realestate,property,nestoria_rank,1560787362,"Compass Hill, Compass Hill, Taunton, Somerset, TA1",house,Stags,buy,345000.0,£,345000.0,345000.0,fixed,0,51.0127,-3.11103,9,0,"Garden, Semi-Detached, Conservatory, Kitchen, Parking",,3,0,A ly designed three bedroom semi-detached house specifically for th...,34,2019-06-17 16:02:42,"{'latitude': 51.0127, 'longitude': -3.11103}"
uk,somerset,11,realestate,property,nestoria_rank,1560787362,"Rodway, Cannington, Bridgwater, Somerset, TA5",house,Greenslade Taylor Hunt,buy,375000.0,£,375000.0,375000.0,fixed,0,51.1527,-3.06457,9,0,"Detached, Freehold, Garden, No Chain",,2,0,A ly presented detached 'old folly' with gardens & carport. Accommo...,30,2019-06-17 16:02:42,"{'latitude': 51.1527, 'longitude': -3.06457}"
uk,somerset,11,realestate,property,nestoria_rank,1560787362,"Apex Drive, Highbridge, Somerset",house,,buy,229500.0,£,229500.0,229500.0,fixed,0,51.2257,-2.98686,9,0,"Semi-Detached, Double Bedroom, Bungalow, Gas Central Heating",,2,0,"A 2 double bedroom semi detached bungalow with gas central heating,...",9,2019-06-17 16:02:42,"{'latitude': 51.2257, 'longitude': -2.98686}"
uk,somerset,11,realestate,property,nestoria_rank,1560787362,"Portland Road, Huish Episcopi, Langport, Somerset, TA10",house,Greenslade Taylor Hunt,buy,425000.0,£,425000.0,425000.0,fixed,0,51.0362,-2.81242,9,0,"Detached, Freehold, Garden, Parking",,5,0,Five bedroom family home with ample garden and parking within walki...,7,2019-06-17 16:02:42,"{'latitude': 51.0362, 'longitude': -2.81242}"
uk,somerset,11,realestate,property,nestoria_rank,1560787362,"Rodway, Cannington, Bridgwater, Somerset, TA5",house,Greenslade Taylor Hunt,buy,455000.0,£,455000.0,455000.0,fixed,0,51.157,-3.06466,9,0,"Freehold, Garden, Semi-Detached, Garage",,4,0,A particularly well presented 4 bed semi-detached house occupying a...,27,2019-06-17 16:02:42,"{'latitude': 51.157, 'longitude': -3.06466}"
uk,somerset,11,realestate,property,nestoria_rank,1560787362,"Lethbridge Park, Bishops Lydeard, Taunton, Somerset, TA4",house,Stags,buy,899950.0,£,899950.0,899950.0,fixed,0,51.0623,-3.20218,9,0,"Detached, En suite, Conservatory, Garage, Kitchen, Modern, Reception",,5,0,A ly presented modern detached house with home office and grounds e...,40,2019-06-17 16:02:42,"{'latitude': 51.0623, 'longitude': -3.20218}"
uk,somerset,11,realestate,property,nestoria_rank,1560787362,"Merridge, Bridgwater, Somerset, TA5",house,,buy,1350000.0,£,1350000.0,1350000.0,fixed,0,51.1069,-3.12556,9,0,"Detached, Conversion",,5,0,A ly presented seventeenth century country house with converted bar...,25,2019-06-17 16:02:42,"{'latitude': 51.1069, 'longitude': -3.12556}"
uk,somerset,11,realestate,property,nestoria_rank,1560787362,"Ham, Somerset, TA3 - Detached, Garden",house,Stags,buy,695000.0,£,695000.0,695000.0,fixed,0,51.0202,-3.02056,9,0,"Detached, Garden, Kitchen, Reception",,5,0,A high quality detached house with adaptable outbuildings and matur...,59,2019-06-17 16:02:42,"{'latitude': 51.0202, 'longitude': -3.02056}"
uk,somerset,12,realestate,property,nestoria_rank,1560787365,"Fore Street, Othery, Bridgwater, Somerset, TA7",house,Greenslade Taylor Hunt,buy,405000.0,£,405000.0,405000.0,fixed,0,51.0804,-2.88085,9,0,"Detached, Freehold, Garden, Detached Garage, Modern, Cottage",,4,0,A cottage-style modern 4 bedroom detached house with good sized gar...,70,2019-06-17 16:02:45,"{'latitude': 51.0804, 'longitude': -2.88085}"
uk,somerset,12,realestate,property,nestoria_rank,1560787365,"Rambler Way, Bridgwater, Somerset, TA6",flat,Greenslade Taylor Hunt,buy,139950.0,£,139950.0,139950.0,fixed,0,51.1347,-3.01216,9,0,Parking,,2,0,A well presented two bed coach house enjoying an open outlook over ...,29,2019-06-17 16:02:45,"{'latitude': 51.1347, 'longitude': -3.01216}"
uk,somerset,12,realestate,property,nestoria_rank,1560787365,"Cathanger Lane, Fivehead, Taunton, Somerset, TA3",house,Greenslade Taylor Hunt,buy,565000.0,£,565000.0,565000.0,fixed,0,51.0019,-2.94281,9,0,"Detached, Freehold, Garden, Grade II, No Chain, Conversion, Listed",,3,0,"An 3 4 bedroom barn conversion with enclosed gardens, grade ii list...",46,2019-06-17 16:02:45,"{'latitude': 51.0019, 'longitude': -2.94281}"
uk,somerset,12,realestate,property,nestoria_rank,1560787365,"Three Ways, East Lyng, Taunton, Somerset",house,Newton King,buy,365000.0,£,365000.0,365000.0,fixed,0,51.056,-2.95168,9,0,"Detached, Reception",,4,0,Ly renovated and extended four bedroom link detached period propert...,39,2019-06-17 16:02:45,"{'latitude': 51.056, 'longitude': -2.95168}"
uk,somerset,12,realestate,property,nestoria_rank,1560787365,"Barford Close, Spaxton, Bridgwater, Somerset, TA5",house,,buy,450000.0,£,450000.0,450000.0,fixed,0,51.1263,-3.0983,9,0,Semi-Detached,,4,0,A village house located in a peaceful and secluded area set within ...,22,2019-06-17 16:02:45,"{'latitude': 51.1263, 'longitude': -3.0983}"
uk,somerset,12,realestate,property,nestoria_rank,1560787365,"Killams Green, Taunton, Somerset",house,Newton King,buy,307500.0,£,307500.0,307500.0,fixed,0,50.9966,-3.08904,9,0,"Detached, Garden, Kitchen, Cul-de-Sac",,4,0,Four bedroom detached property in the killhams development offering...,33,2019-06-17 16:02:45,"{'latitude': 50.9966, 'longitude': -3.08904}"
uk,somerset,12,realestate,property,nestoria_rank,1560787365,"Portland Grange, Upper High Street, Taunton, Somerset",flat,Newton King,buy,99995.0,£,99995.0,99995.0,fixed,0,51.0116,-3.10628,9,0,"Purpose Built, Lift",,2,0,Purpose built first floor apartment with lift system. In a convenie...,23,2019-06-17 16:02:45,"{'latitude': 51.0116, 'longitude': -3.10628}"
uk,somerset,12,realestate,property,nestoria_rank,1560787365,"Hewish, Crewkerne, Somerset, TA18",house,Greenslade Taylor Hunt,buy,595000.0,£,595000.0,595000.0,fixed,0,50.8717,-2.82576,9,0,"Detached, Freehold, Garden, Bungalow",,4,0,Situated in this small hamlet with access to crewkerne and just 14 ...,6,2019-06-17 16:02:45,"{'latitude': 50.8717, 'longitude': -2.82576}"
uk,somerset,12,realestate,property,nestoria_rank,1560787365,"Chitterwell, Wellington, Somerset, TA21",house,Stags,buy,385000.0,£,385000.0,385000.0,fixed,0,50.9716,-3.28156,9,0,"Garden, Semi-Detached, En suite, Conversion, Garage, Kitchen, Reception",,3,0,An three bedroom barn conversion in rural setting with parking and ...,10,2019-06-17 16:02:45,"{'latitude': 50.9716, 'longitude': -3.28156}"
uk,somerset,12,realestate,property,nestoria_rank,1560787365,"Langford Budville, Wellington, Somerset, TA21",house,Stags,buy,275000.0,£,275000.0,275000.0,fixed,0,50.999,-3.26919,9,0,"Garden, Semi-Detached, En suite, Kitchen, Parking, Cottage, Reception",2,2,0,A & 2 bed character cottage with large garden and parking. 2 recept...,25,2019-06-17 16:02:45,"{'latitude': 50.999, 'longitude': -3.26919}"
uk,somerset,12,realestate,property,nestoria_rank,1560787365,"Meadway, Woolavington, Somerset, TA7",house,Greenslade Taylor Hunt,buy,257000.0,£,257000.0,257000.0,fixed,0,51.1661,-2.93872,9,0,"Detached, Freehold, Garden, No Chain, Modern, Parking",,5,0,A well presented and modern detached residencetractive garden and p...,26,2019-06-17 16:02:45,"{'latitude': 51.1661, 'longitude': -2.93872}"
uk,somerset,12,realestate,property,nestoria_rank,1560787365,"Sellicks Green, Taunton, Somerset, TA3",house,Stags,buy,1350000.0,£,1350000.0,1350000.0,fixed,0,50.9668,-3.12335,9,0,"Detached, Garden, Grade II, Conversion, Reception, Listed",,5,0,"A period farmhouse set in gardens with separate converted barn, sta...",24,2019-06-17 16:02:45,"{'latitude': 50.9668, 'longitude': -3.12335}"
uk,somerset,12,realestate,property,nestoria_rank,1560787365,"Eastgate Gardens, Taunton, Somerset",flat,Newton King,buy,135000.0,£,135000.0,135000.0,fixed,0,51.0156,-3.09737,9,0,Kitchen,,2,0,Two bedroom retirement apartment in the centre of taunton within cl...,24,2019-06-17 16:02:45,"{'latitude': 51.0156, 'longitude': -3.09737}"
uk,somerset,12,realestate,property,nestoria_rank,1560787365,"East Reach, Taunton, Somerset, TA1",flat,Greenslade Taylor Hunt,buy,195000.0,£,195000.0,195000.0,fixed,0,51.0154,-3.0945,9,0,"Refurbished, Kitchen",,2,0,Prominent location fronting busy thoroughfare. Well maintained refu...,87,2019-06-17 16:02:45,"{'latitude': 51.0154, 'longitude': -3.0945}"
uk,somerset,12,realestate,property,nestoria_rank,1560787365,"Lower Chipley, Wellington, Somerset, TA21",house,Stags,buy,595000.0,£,595000.0,595000.0,fixed,0,51.0037,-3.26302,9,0,"Garden, Semi-Detached, No Chain, Refurbished, Garage, Kitchen, Reception",2,5,0,The major part of a refurbished period farmhouse with separate barn...,86,2019-06-17 16:02:45,"{'latitude': 51.0037, 'longitude': -3.26302}"
uk,somerset,13,realestate,property,nestoria_rank,1560787367,"Middle Road, Cossington, Bridgwater, Somerset, TA7",house,Greenslade Taylor Hunt,buy,225000.0,£,225000.0,225000.0,fixed,0,51.1573,-2.91747,9,0,"Freehold, Garden, Terraced, Garage, Modern",,3,0,A ly presented modern property built by stongvox in 2010tractive lo...,31,2019-06-17 16:02:47,"{'latitude': 51.1573, 'longitude': -2.91747}"
uk,somerset,13,realestate,property,nestoria_rank,1560787367,"Lodes Lane, Kingston St. Mary, Taunton, Somerset, TA2",house,Savills,buy,1200000.0,£,1200000.0,1200000.0,fixed,0,51.06227,-3.11182,9,0,Detached,,6,0,"A and versatile family home in prime west somerset village, close t...",67,2019-06-17 16:02:47,"{'latitude': 51.06227, 'longitude': -3.11182}"
uk,somerset,13,realestate,property,nestoria_rank,1560787367,"Church Lane, East Huntspill, Highbridge, Somerset, TA9",house,Greenslade Taylor Hunt,buy,399950.0,£,399950.0,399950.0,fixed,0,51.2018,-2.94235,9,0,"Detached, Freehold, Garden, Garage, Bungalow",2,3,0,"This and tastefully presented, detached 3 bedroom, 2 bathroom, exte...",110,2019-06-17 16:02:47,"{'latitude': 51.2018, 'longitude': -2.94235}"
uk,somerset,13,realestate,property,nestoria_rank,1560787367,"Lower Meadow, Ilminster, Somerset, TA19",house,Greenslade Taylor Hunt,buy,175000.0,£,175000.0,175000.0,fixed,0,50.927,-2.92014,9,0,"Detached, Freehold, Garage",,2,0,"Set within the heart of the lower meadow development, this 2 bedroo...",7,2019-06-17 16:02:47,"{'latitude': 50.927, 'longitude': -2.92014}"
uk,somerset,13,realestate,property,nestoria_rank,1560787367,"Stathe, Bridgwater, Somerset, TA7",house,,buy,1100000.0,£,1100000.0,1100000.0,fixed,0,51.0608,-2.89957,9,0,"Detached, Grade II, Cottage, Listed",,5,0,"A particularly period farmhouse, listed grade ii with guest cottage...",89,2019-06-17 16:02:47,"{'latitude': 51.0608, 'longitude': -2.89957}"
uk,somerset,13,realestate,property,nestoria_rank,1560787367,"Ash Priors, Taunton, Somerset, TA4",house,Stags,buy,340000.0,£,340000.0,340000.0,fixed,0,51.0585,-3.213,9,0,"Detached, Garden, Refurbished, Kitchen, Cottage",,3,0,A newly renovated detached stone cottage situated in a village loca...,87,2019-06-17 16:02:47,"{'latitude': 51.0585, 'longitude': -3.213}"
uk,somerset,13,realestate,property,nestoria_rank,1560787367,"Westleigh Road, Taunton, Somerset",house,Newton King,buy,265000.0,£,265000.0,265000.0,fixed,0,51.0129,-3.08772,9,0,"Semi-Detached, Kitchen",,3,0,3 bedroom semi detached family home located in a central location w...,50,2019-06-17 16:02:47,"{'latitude': 51.0129, 'longitude': -3.08772}"
uk,somerset,13,realestate,property,nestoria_rank,1560787367,"Bay Hill, Ilminster, Somerset, TA19",house,Greenslade Taylor Hunt,buy,275000.0,£,275000.0,275000.0,fixed,0,50.9267,-2.90364,9,0,"Freehold, Garden, Grade II, Terraced, Cottage, Listed",,4,0,Situated on the eastern fringe of ilminster with one of the most ou...,10,2019-06-17 16:02:47,"{'latitude': 50.9267, 'longitude': -2.90364}"
uk,somerset,13,realestate,property,nestoria_rank,1560787367,"Annecy Court, St Josephs Field, Taunton, Somerset",flat,Newton King,buy,169995.0,£,169995.0,169995.0,fixed,0,51.0114,-3.09569,9,0,"Grade II, Conversion, Listed",,1,0,", grade ii listed apartment conversion set in an gated development ...",127,2019-06-17 16:02:47,"{'latitude': 51.0114, 'longitude': -3.09569}"
uk,somerset,13,realestate,property,nestoria_rank,1560787367,"Webbers Way, Puriton, Somerset",house,,buy,204950.0,£,204950.0,204950.0,fixed,0,51.1679,-2.97651,9,0,"Semi-Detached, Bungalow, Modern, Gas Central Heating",,2,0,"A modern, 2 bedroom, gas centrally heated, double glazed semi-detac...",115,2019-06-17 16:02:47,"{'latitude': 51.1679, 'longitude': -2.97651}"
uk,somerset,13,realestate,property,nestoria_rank,1560787367,"Crowcombe, Taunton, Somerset, TA4",house,Stags,buy,1600000.0,£,1600000.0,1600000.0,fixed,0,51.1118,-3.22968,9,0,"Detached, Garden, Reception",,4,0,"A four bedroom, five reception room period property with private ga...",22,2019-06-17 16:02:47,"{'latitude': 51.1118, 'longitude': -3.22968}"
uk,somerset,13,realestate,property,nestoria_rank,1560787367,"Stolford, Stogursey, Bridgwater, Somerset, TA5",house,Greenslade Taylor Hunt,buy,575000.0,£,575000.0,575000.0,fixed,0,51.1929,-3.10906,9,0,"Freehold, Semi-Detached, Double Garage, Conversion",,4,0,"A semi-detached barn conversion. With just under 3 acres, 4 stables...",32,2019-06-17 16:02:47,"{'latitude': 51.1929, 'longitude': -3.10906}"
uk,somerset,13,realestate,property,nestoria_rank,1560787367,"Fitzhead, Taunton, Somerset, TA4",house,Stags,buy,400000.0,£,400000.0,400000.0,fixed,0,51.0474,-3.24583,9,0,"Semi-Detached, En suite, Garage, Kitchen",,4,0,"A ly presented and ly extended village house. Kitchen, dining room ...",22,2019-06-17 16:02:47,"{'latitude': 51.0474, 'longitude': -3.24583}"
uk,somerset,13,realestate,property,nestoria_rank,1560787367,"Horton, Ilminster, Somerset, TA19",house,Greenslade Taylor Hunt,buy,445000.0,£,445000.0,445000.0,fixed,0,50.93,-2.9692,9,0,"Detached, Freehold, Garden",2,3,0,"A detached, well-appointed individual house situated on a quiet lan...",19,2019-06-17 16:02:47,"{'latitude': 50.93, 'longitude': -2.9692}"
uk,somerset,13,realestate,property,nestoria_rank,1560787367,"Wyndham Road, Wyndham Road, Taunton, Somerset, TA2",house,Stags,buy,450000.0,£,450000.0,450000.0,fixed,0,51.0311,-3.11243,9,0,"Detached, Cul-de-Sac",,4,0,"In this sought after cul-de-sac, this 1930s detached house is ly pr...",72,2019-06-17 16:02:47,"{'latitude': 51.0311, 'longitude': -3.11243}"
uk,somerset,14,realestate,property,nestoria_rank,1560787369,"Combe Florey, Taunton, Somerset",house,Strutt & Parker,buy,650000.0,£,650000.0,650000.0,fixed,0,51.07438,-3.21287,9,0,"Garden, Semi-Detached, Grade II, Listed",,3,0,"An ly presented grade ii listed property with landscaped gardens, i...",45,2019-06-17 16:02:49,"{'latitude': 51.07438, 'longitude': -3.21287}"
uk,somerset,14,realestate,property,nestoria_rank,1560787369,"Brightstowe Road, Burnham-on-Sea, Somerset",house,,buy,315000.0,£,315000.0,315000.0,fixed,0,51.2493,-3.00125,9,0,"Detached, Double Bedroom, Bungalow, Gas Central Heating",,3,0,"A 3 double bedroom, detached bungalow, with gas central heating, do...",9,2019-06-17 16:02:49,"{'latitude': 51.2493, 'longitude': -3.00125}"
uk,somerset,14,realestate,property,nestoria_rank,1560787369,"Drayton Lane, Curry Rivel, Langport, Somerset, TA10",house,Greenslade Taylor Hunt,buy,375000.0,£,375000.0,375000.0,fixed,0,51.0237,-2.86416,9,0,"Detached, Freehold, Bungalow, Modern",,3,0,A particularly modern detached bungalow occupying a pleasant positi...,16,2019-06-17 16:02:49,"{'latitude': 51.0237, 'longitude': -2.86416}"
uk,somerset,14,realestate,property,nestoria_rank,1560787369,"Holford, Bridgwater, Somerset, TA5",house,Greenslade Taylor Hunt,buy,475000.0,£,475000.0,475000.0,fixed,0,51.1661,-3.20615,9,0,"Detached, Freehold, Garden, Garage, Cottage",,4,0,"An intriguing 16th century detached cottage with large gardens, sum...",24,2019-06-17 16:02:49,"{'latitude': 51.1661, 'longitude': -3.20615}"
uk,somerset,14,realestate,property,nestoria_rank,1560787369,"Church Square, Taunton, Somerset, TA1",house,Greenslade Taylor Hunt,buy,795000.0,£,795000.0,795000.0,fixed,0,51.0158,-3.10155,9,0,"Freehold, Grade II, Listed",,5,0,A landmark grade ii listed town house affording and accommodation o...,146,2019-06-17 16:02:49,"{'latitude': 51.0158, 'longitude': -3.10155}"
uk,somerset,14,realestate,property,nestoria_rank,1560787369,"Church Road, West Huntspill, Highbridge, Somerset, TA9",house,Greenslade Taylor Hunt,buy,229950.0,£,229950.0,229950.0,fixed,0,51.2079,-2.98766,9,0,"Detached, Garden, No Chain, Garage, Bungalow",,3,0,"This well presented 2/3 bedroom, semi detached dormer style bungalo...",25,2019-06-17 16:02:49,"{'latitude': 51.2079, 'longitude': -2.98766}"
uk,somerset,14,realestate,property,nestoria_rank,1560787369,"Church Lane, Chilton Polden, Somerset",house,Newton King,buy,230000.0,£,230000.0,230000.0,fixed,0,51.1545,-2.89615,9,0,"Semi-Detached, En suite, Bungalow",,3,0,3 bedroom semi detached bungalow located within the sought after an...,16,2019-06-17 16:02:49,"{'latitude': 51.1545, 'longitude': -2.89615}"
uk,somerset,14,realestate,property,nestoria_rank,1560787369,"Firepool View, Taunton, Somerset, TA1",house,Greenslade Taylor Hunt,buy,299950.0,£,299950.0,299950.0,fixed,0,51.0225,-3.09675,9,0,Semi-Detached,,3,0,A contemporary three storey town house presented in order throughou...,96,2019-06-17 16:02:49,"{'latitude': 51.0225, 'longitude': -3.09675}"
uk,somerset,14,realestate,property,nestoria_rank,1560787369,"Trivetts Way, Cossington, Somerset, TA7 8",house,,buy,277500.0,£,277500.0,277500.0,fixed,0,51.1577,-2.91758,9,0,"Detached, En suite, Garage, Modern",,3,0,Located within the much sought-after village of cossington is this ...,38,2019-06-17 16:02:49,"{'latitude': 51.1577, 'longitude': -2.91758}"
uk,somerset,14,realestate,property,nestoria_rank,1560787369,"Martins Close, Burnham-on-Sea, Somerset, TA8",house,Greenslade Taylor Hunt,buy,279950.0,£,279950.0,279950.0,fixed,0,51.2577,-3.00153,9,0,"Detached, Freehold, Garden, No Chain, Garage, Bungalow",,3,0,"This extended, 3 bedroom detached bungalow occupies a good size cor...",12,2019-06-17 16:02:49,"{'latitude': 51.2577, 'longitude': -3.00153}"
uk,somerset,14,realestate,property,nestoria_rank,1560787369,"Hawkers Lane, Hambridge, Langport, Somerset, TA10",house,Greenslade Taylor Hunt,buy,425000.0,£,425000.0,425000.0,fixed,0,50.9886,-2.86349,9,0,"Freehold, Garden",,4,0,Set at the end of a no through lane off the centre of a south somer...,9,2019-06-17 16:02:49,"{'latitude': 50.9886, 'longitude': -2.86349}"
uk,somerset,14,realestate,property,nestoria_rank,1560787369,"Swanmead Drive, Ilminster, Somerset, TA19",house,Greenslade Taylor Hunt,buy,280000.0,£,280000.0,280000.0,fixed,0,50.928,-2.92838,9,0,"Detached, Freehold, Garden, Modern",,3,0,Benefiting from a size garden and no properties overlooking the rea...,9,2019-06-17 16:02:49,"{'latitude': 50.928, 'longitude': -2.92838}"
uk,somerset,14,realestate,property,nestoria_rank,1560787369,"Meadowcroft Drive, Burnham-on-Sea, Somerset, TA8",house,Greenslade Taylor Hunt,buy,265000.0,£,265000.0,265000.0,fixed,0,51.2431,-2.98313,9,0,"Detached, Freehold, Conservatory, Garage, Modern, Cul-de-Sac",,3,0,"This well presented, 3 bedroom link-detached modern residence is si...",16,2019-06-17 16:02:49,"{'latitude': 51.2431, 'longitude': -2.98313}"
uk,somerset,14,realestate,property,nestoria_rank,1560787369,"Holland Mews, Holway Avenue, Taunton, Somerset",house,Newton King,buy,325000.0,£,325000.0,325000.0,fixed,0,51.0118,-3.09143,9,0,"Terraced, Cul-de-Sac",,4,0,Four bedroom end of terrace property tucked away in a quiet cul-de-...,71,2019-06-17 16:02:49,"{'latitude': 51.0118, 'longitude': -3.09143}"
uk,somerset,14,realestate,property,nestoria_rank,1560787369,"Carlton Court, Wells, Somerset, BA5",property,Greenslade Taylor Hunt,buy,175000.0,£,175000.0,175000.0,fixed,0,51.2084,-2.64429,9,0,"Garden, No Chain, Kitchen, Reception",,2,0,A two bedroom ground floor retirement apartment situated within yar...,6,2019-06-17 16:02:49,"{'latitude': 51.2084, 'longitude': -2.64429}"
uk,somerset,15,realestate,property,nestoria_rank,1560787372,"Aisholt, Bridgwater, Somerset, TA5",property,,buy,2250000.0,£,2250000.0,2250000.0,fixed,0,51.1132,-3.15234,9,0,,,6,0,"A superb country property, ly restored and extended in an enchantin...",24,2019-06-17 16:02:52,"{'latitude': 51.1132, 'longitude': -3.15234}"
uk,somerset,15,realestate,property,nestoria_rank,1560787372,"Summerville Terrace, Burnham-on-Sea, Somerset, TA8",house,Greenslade Taylor Hunt,buy,209000.0,£,209000.0,209000.0,fixed,0,51.2352,-2.99591,9,0,"Freehold, Garden, Terraced, Victorian",,3,0,"This , well presented 3 bedroom victorian terrace house offers good...",11,2019-06-17 16:02:52,"{'latitude': 51.2352, 'longitude': -2.99591}"
uk,somerset,15,realestate,property,nestoria_rank,1560787372,"Crown Lane, South Petherton, Somerset, TA13",house,Greenslade Taylor Hunt,buy,565000.0,£,565000.0,565000.0,fixed,0,50.949,-2.81125,9,0,"Detached, Garden, Double Garage, Bungalow, Reception",2,3,0,An outstanding and well situated detached bungalow in order through...,17,2019-06-17 16:02:52,"{'latitude': 50.949, 'longitude': -2.81125}"
uk,somerset,15,realestate,property,nestoria_rank,1560787372,"Brent Road, East Brent, Highbridge, Somerset, TA9",house,Greenslade Taylor Hunt,buy,350000.0,£,350000.0,350000.0,fixed,0,51.2651,-2.94162,9,0,"Detached, Freehold, Double Garage, No Chain, Refurbished, Bungalow",2,2,0,"This well presented and tastefully refurbished 2 bedroom, 2 bathroo...",35,2019-06-17 16:02:52,"{'latitude': 51.2651, 'longitude': -2.94162}"
uk,somerset,15,realestate,property,nestoria_rank,1560787372,"West Charlton, Charlton Mackrell, Somerton, Somerset, TA11",house,Stags,buy,650000.0,£,650000.0,650000.0,fixed,0,51.0517,-2.67762,9,0,"Detached, Garden, En suite, No Chain, Conversion, Detached Garage, Double Bedroom, Bungalow, Modern, Reception",,4,0,A single storey barn conversion located in a rural location with vi...,11,2019-06-17 16:02:52,"{'latitude': 51.0517, 'longitude': -2.67762}"
uk,somerset,15,realestate,property,nestoria_rank,1560787372,"Grenville View, Cotford St Luke, Somerset",flat,Newton King,buy,124995.0,£,124995.0,124995.0,fixed,0,51.0385,-3.18777,9,0,,,2,0,2 bedroom first floor apartment situated in the heart of cotford st...,19,2019-06-17 16:02:52,"{'latitude': 51.0385, 'longitude': -3.18777}"
uk,somerset,15,realestate,property,nestoria_rank,1560787372,"Brendon Road, Watchet, Somerset, TA23",house,,buy,215000.0,£,215000.0,215000.0,fixed,0,51.1793,-3.33107,9,0,"Detached, Freehold, Garden, Terraced, Bungalow",,2,0,A ly presented two bedroom bungalow with a large terraced garden fr...,7,2019-06-17 16:02:52,"{'latitude': 51.1793, 'longitude': -3.33107}"
uk,somerset,15,realestate,property,nestoria_rank,1560787372,"West Street, Stoke-Sub-Hamdon, Somerset, TA14",house,,buy,213000.0,£,213000.0,213000.0,fixed,0,50.9525,-2.75253,9,0,"Garden, No Chain, Fireplace, Terraced, Kitchen, Off Street Parking, Gas Central Heating",,3,0,Three bedroom end of terrace house situated in the sought after vil...,9,2019-06-17 16:02:52,"{'latitude': 50.9525, 'longitude': -2.75253}"
uk,somerset,15,realestate,property,nestoria_rank,1560787372,"Duddlestone Farm, Duddlestone, Taunton, Somerset, TA3",house,,buy,850000.0,£,850000.0,850000.0,fixed,0,50.9846,-3.08971,9,0,"Detached, Grade II, Listed",,5,0,A 16th century grade ii listed farmhouse for renovation together wi...,34,2019-06-17 16:02:52,"{'latitude': 50.9846, 'longitude': -3.08971}"
uk,somerset,15,realestate,property,nestoria_rank,1560787372,"Fiddington, Bridgwater, Somerset, TA5",house,Greenslade Taylor Hunt,buy,250000.0,£,250000.0,250000.0,fixed,0,51.1677,-3.10404,9,0,"Freehold, Semi-Detached, Conversion",,3,0,"A semi-detached, converted former chapel. And modernised accommodat...",57,2019-06-17 16:02:52,"{'latitude': 51.1677, 'longitude': -3.10404}"
uk,somerset,15,realestate,property,nestoria_rank,1560787372,"Ferguson Close, Nether Stowey, Somerset, TA5",house,,buy,325000.0,£,325000.0,325000.0,fixed,0,51.1556,-3.16005,9,0,"Detached, En suite",,4,0,Four bedroom executive detached property situated within the hartle...,22,2019-06-17 16:02:52,"{'latitude': 51.1556, 'longitude': -3.16005}"
uk,somerset,15,realestate,property,nestoria_rank,1560787372,"Channel Close, Nether Stowey, Bridgwater, Somerset, TA5",house,Greenslade Taylor Hunt,buy,325000.0,£,325000.0,325000.0,fixed,0,51.1501,-3.16211,9,0,"Detached, Freehold, Garden, No Chain",,3,0,An extended and modernized detached property which is presented in ...,98,2019-06-17 16:02:52,"{'latitude': 51.1501, 'longitude': -3.16211}"
uk,somerset,15,realestate,property,nestoria_rank,1560787372,"Regal Walk, Bridgwater, Somerset, TA6",house,Greenslade Taylor Hunt,buy,295000.0,£,295000.0,295000.0,fixed,0,51.1476,-2.98351,9,0,"Detached, Freehold",,4,0,A well-presented detached residence constructed in 2016 by david wi...,123,2019-06-17 16:02:52,"{'latitude': 51.1476, 'longitude': -2.98351}"
uk,somerset,15,realestate,property,nestoria_rank,1560787372,"West Buckland, Wellington, Somerset, TA21",house,Stags,buy,445000.0,£,445000.0,445000.0,fixed,0,50.9774,-3.17686,9,0,"Detached, Garden, Double Bedroom, Garage, Kitchen, Reception",,4,0,A four bedroom detached house set within large gardens with ample p...,113,2019-06-17 16:02:52,"{'latitude': 50.9774, 'longitude': -3.17686}"
uk,somerset,15,realestate,property,nestoria_rank,1560787372,"Othery, Othery, Bridgwater, Somerset, TA7",house,Stags,buy,665000.0,£,665000.0,665000.0,fixed,0,51.0848,-2.8765,9,0,"Detached, Garden, Kitchen, Reception",,5,0,A period farmhouse with a range of traditional outbuildings and app...,288,2019-06-17 16:02:52,"{'latitude': 51.0848, 'longitude': -2.8765}"
uk,somerset,16,realestate,property,nestoria_rank,1560787374,"Redwood Grange, Bartletts Elm, Langport, Somerset, TA10",flat,Greenslade Taylor Hunt,buy,115000.0,£,115000.0,115000.0,fixed,0,51.0444,-2.81755,9,0,"Leasehold, Shared Garden, Parking",,1,0,One bedroom first floor apartment in period country house with allo...,25,2019-06-17 16:02:54,"{'latitude': 51.0444, 'longitude': -2.81755}"
uk,somerset,16,realestate,property,nestoria_rank,1560787374,"Tanyard, Broadway, Ilminster, Somerset, TA19",house,Stags,buy,435000.0,£,435000.0,435000.0,fixed,0,50.934,-2.96576,9,0,"Detached, Garden, En suite, Double Garage, Conservatory, Kitchen",,4,0,A well-proportioned four bedroom detached village house with good s...,46,2019-06-17 16:02:54,"{'latitude': 50.934, 'longitude': -2.96576}"
uk,somerset,16,realestate,property,nestoria_rank,1560787374,"Combe Street, Chard, Somerset, TA20",house,Greenslade Taylor Hunt,buy,425000.0,£,425000.0,425000.0,fixed,0,50.8734,-2.9672,9,0,"Freehold, Garden, Grade II, Parking, Listed",,8,0,"A superb grade ii listed town house offering family accommodation, ...",7,2019-06-17 16:02:54,"{'latitude': 50.8734, 'longitude': -2.9672}"
uk,somerset,16,realestate,property,nestoria_rank,1560787374,"Bell Lane, Cossington, Bridgwater, Somerset, TA7",house,Greenslade Taylor Hunt,buy,685000.0,£,685000.0,685000.0,fixed,0,51.1585,-2.91944,9,0,"Detached, Freehold, Garden",,4,0,A ly presented detached residence surrounded by gardens and situate...,34,2019-06-17 16:02:54,"{'latitude': 51.1585, 'longitude': -2.91944}"
uk,somerset,16,realestate,property,nestoria_rank,1560787374,"Westford Court, Wellington, Somerset, TA21",house,Stags,buy,300000.0,£,300000.0,300000.0,fixed,0,50.9764,-3.25309,9,0,"Garden, Semi-Detached, Grade II, Terraced, Double Bedroom, Kitchen, Georgian, Listed",,2,0,A ly appointed grade ii listed georgian house with terraced gardens...,29,2019-06-17 16:02:54,"{'latitude': 50.9764, 'longitude': -3.25309}"
uk,somerset,16,realestate,property,nestoria_rank,1560787374,"Chilson Common, South Chard, Chard, Somerset, TA20",house,Greenslade Taylor Hunt,buy,385000.0,£,385000.0,385000.0,fixed,0,50.837,-2.94913,9,0,Cottage,,3,0,An and ly presented 3 bedroom cottage on the outskirts of a village...,6,2019-06-17 16:02:54,"{'latitude': 50.837, 'longitude': -2.94913}"
uk,somerset,16,realestate,property,nestoria_rank,1560787374,"Stockland Bristol, Bridgwater, Somerset, TA5",house,Greenslade Taylor Hunt,buy,450000.0,£,450000.0,450000.0,fixed,0,51.1874,-3.08334,9,0,"Detached, Freehold, Garden, No Chain",,4,0,A detached house which was built to a high specification in 2014 an...,74,2019-06-17 16:02:54,"{'latitude': 51.1874, 'longitude': -3.08334}"
uk,somerset,16,realestate,property,nestoria_rank,1560787374,"Abbey Close, Curry Rivel, Langport, Somerset, TA10",house,Greenslade Taylor Hunt,buy,295000.0,£,295000.0,295000.0,fixed,0,51.0237,-2.86169,9,0,"Detached, Freehold, Garden, Refurbished, Garage",,4,0,"A refurbished four bedroom detached house with garage, parking and ...",77,2019-06-17 16:02:54,"{'latitude': 51.0237, 'longitude': -2.86169}"
uk,somerset,16,realestate,property,nestoria_rank,1560787374,"Triscombe, Bishops Lydeard, Taunton, Somerset, TA4",house,,buy,750000.0,£,750000.0,750000.0,fixed,0,51.1124,-3.20762,9,0,"Detached, Garden",,4,0,A ly situated country property set within ly stocked gardens on the...,26,2019-06-17 16:02:54,"{'latitude': 51.1124, 'longitude': -3.20762}"
uk,somerset,16,realestate,property,nestoria_rank,1560787374,"Middle Street, Shepton Beauchamp, Somerset, TA19",house,Stags,buy,199950.0,£,199950.0,199950.0,fixed,0,50.9491,-2.85124,9,0,"Garden, Semi-Detached, Fireplace, Terraced, Kitchen, Cottage",,2,0,A terraced hamstone cottage within the heart of shepton beauchamp. ...,13,2019-06-17 16:02:54,"{'latitude': 50.9491, 'longitude': -2.85124}"
uk,somerset,16,realestate,property,nestoria_rank,1560787374,"Hill View Close Ilton, Illminster, Somerset, TA19",house,Greenslade Taylor Hunt,buy,280000.0,£,280000.0,280000.0,fixed,0,50.9547,-2.92316,9,0,"Detached, Freehold",,3,0,A sized and well maintained 3 bedroom detached house situated in th...,11,2019-06-17 16:02:54,"{'latitude': 50.9547, 'longitude': -2.92316}"
uk,somerset,16,realestate,property,nestoria_rank,1560787374,"Stockland Bristol, Bridgwater, Somerset, TA5",house,Greenslade Taylor Hunt,buy,650000.0,£,650000.0,650000.0,fixed,0,51.1874,-3.08334,9,0,"Detached, Freehold, Garden",,8,0,"A detached period house with large gardens, outbuildings and situat...",84,2019-06-17 16:02:54,"{'latitude': 51.1874, 'longitude': -3.08334}"
uk,somerset,16,realestate,property,nestoria_rank,1560787374,"Caernarvon Way, Burnham-on-Sea, Somerset, TA8",house,Greenslade Taylor Hunt,buy,246500.0,£,246500.0,246500.0,fixed,0,51.2472,-2.99206,9,0,"Detached, Freehold, Garden, No Chain, Bungalow, Parking",,2,0,This 2 bedroom well presented detached bungalow occupies an corner ...,16,2019-06-17 16:02:54,"{'latitude': 51.2472, 'longitude': -2.99206}"
uk,somerset,16,realestate,property,nestoria_rank,1560787374,"Quantock View, Cotford St. Luke, Taunton, Somerset, TA4",house,Greenslade Taylor Hunt,buy,230000.0,£,230000.0,230000.0,fixed,0,51.0405,-3.18289,9,0,"Semi-Detached, Bungalow",,3,0,"Now launched quantock view, cotford st luke, coming soon! A select ...",48,2019-06-17 16:02:54,"{'latitude': 51.0405, 'longitude': -3.18289}"
uk,somerset,16,realestate,property,nestoria_rank,1560787374,"Helwell Street, Watchet, Somerset TA23",house,Wilkie May & Tuckwood,buy,350000.0,£,350000.0,350000.0,fixed,0,51.179276,-3.318947,9,0,"Detached, Garden, No Chain, Garage, Modern",,4,0,No onward chain at only one year old this modern and 4 bedroom deta...,10,2019-06-17 16:02:54,"{'latitude': 51.179276, 'longitude': -3.318947}"
uk,somerset,17,realestate,property,nestoria_rank,1560787377,"2 Aldwych Close, BURNHAM-ON-SEA, Somerset",house,,buy,375000.0,£,375000.0,375000.0,fixed,0,51.2315,-2.98535,9,0,"Detached, Modern",,4,0,"This well presented, detached modern family home is within walking ...",10,2019-06-17 16:02:57,"{'latitude': 51.2315, 'longitude': -2.98535}"
uk,somerset,17,realestate,property,nestoria_rank,1560787377,"Middle Chipley, Langford Budville, Wellington, Somerset, TA21",house,Stags,buy,595000.0,£,595000.0,595000.0,fixed,0,51.0049,-3.26361,9,0,"Garden, Semi-Detached, En suite, Grade II, Conversion, Kitchen, Parking, Listed",,4,0,Grade ii listed four bedroom barn conversion with large private gar...,268,2019-06-17 16:02:57,"{'latitude': 51.0049, 'longitude': -3.26361}"
uk,somerset,17,realestate,property,nestoria_rank,1560787377,"Westover, Langport, Somerset, TA10",house,Greenslade Taylor Hunt,buy,205000.0,£,205000.0,205000.0,fixed,0,51.036,-2.8363,9,0,"Freehold, Garden, Semi-Detached, Double Bedroom, Parking, Cottage",,2,0,A two double bedroom semi-detached cottage with parking and enclose...,160,2019-06-17 16:02:57,"{'latitude': 51.036, 'longitude': -2.8363}"
uk,somerset,17,realestate,property,nestoria_rank,1560787377,"Love Lane, Burnham-on-Sea, Somerset, TA8",house,Greenslade Taylor Hunt,buy,289950.0,£,289950.0,289950.0,fixed,0,51.2381,-2.99295,9,0,"Detached, Freehold, Garden, No Chain, Garage, Modern",,5,0,This modern extended 4/5 bedroom detached house offers family accom...,52,2019-06-17 16:02:57,"{'latitude': 51.2381, 'longitude': -2.99295}"
uk,somerset,17,realestate,property,nestoria_rank,1560787377,"Ilford, Ilminster, Somerset, TA19",house,,buy,775000.0,£,775000.0,775000.0,fixed,0,50.9545,-2.90408,9,0,"Detached, Garden, Grade II, Listed",,5,0,"A period house, grade ii listed set in enchanting gardens. In all a...",25,2019-06-17 16:02:57,"{'latitude': 50.9545, 'longitude': -2.90408}"
uk,somerset,17,realestate,property,nestoria_rank,1560787377,"Combe St Nicholas, Chard, Somerset, TA20",house,Stags,buy,565000.0,£,565000.0,565000.0,fixed,0,50.9094,-3.00128,9,0,"Detached, Garden, Detached Garage, Cottage",,3,0,A ly renovated cottage nestled in the blackdown hills with 1.35 acr...,16,2019-06-17 16:02:57,"{'latitude': 50.9094, 'longitude': -3.00128}"
uk,somerset,17,realestate,property,nestoria_rank,1560787377,"Goose Lane, Broadway, Ilminster, Somerset, TA19",house,Stags,buy,485000.0,£,485000.0,485000.0,fixed,0,50.9336,-2.9681,9,0,"Detached, Garden, En suite, Double Garage, Kitchen",,3,0,"A , individually designed hamstone house with landscaped gardens an...",45,2019-06-17 16:02:57,"{'latitude': 50.9336, 'longitude': -2.9681}"
uk,somerset,17,realestate,property,nestoria_rank,1560787377,"Wild Oak Lane, Trull, Taunton, Somerset, TA3",house,,buy,695000.0,£,695000.0,695000.0,fixed,0,50.9989,-3.11821,9,0,Detached,,7,0,A peacefully situated contemporary house with a two bedroom annexe ...,67,2019-06-17 16:02:57,"{'latitude': 50.9989, 'longitude': -3.11821}"
uk,somerset,17,realestate,property,nestoria_rank,1560787377,"Bell Orchard, Curry Rivel, Langport, Somerset, TA10",house,Greenslade Taylor Hunt,buy,445000.0,£,445000.0,445000.0,fixed,0,51.0241,-2.86455,9,0,"Detached, Freehold, Garden, Parking",,5,0,A ly practical 5 bedroom home with garden and ample parking. Freehold,38,2019-06-17 16:02:57,"{'latitude': 51.0241, 'longitude': -2.86455}"
uk,somerset,17,realestate,property,nestoria_rank,1560787377,"Bartletts Elm, Langport, Somerset, TA10",flat,Greenslade Taylor Hunt,buy,130000.0,£,130000.0,130000.0,fixed,0,51.0437,-2.8167,9,0,"Leasehold, Shared Garden, Parking",,2,0,Two bedroom ground floor apartment with private parking space and u...,25,2019-06-17 16:02:57,"{'latitude': 51.0437, 'longitude': -2.8167}"
uk,somerset,17,realestate,property,nestoria_rank,1560787377,"Stanchester Way, Curry Rivel, Langport, Somerset, TA10",house,Greenslade Taylor Hunt,buy,270000.0,£,270000.0,270000.0,fixed,0,51.026,-2.8622,9,0,"Detached, Freehold, Bungalow, Modern, Cul-de-Sac",,3,0,A modern three bedroom detached bungalow situated in a cul-de-sac o...,74,2019-06-17 16:02:57,"{'latitude': 51.026, 'longitude': -2.8622}"
uk,somerset,17,realestate,property,nestoria_rank,1560787377,"Preston Bowyer, Milverton, Taunton, Somerset, TA4",house,Greenslade Taylor Hunt,buy,235000.0,£,235000.0,235000.0,fixed,0,51.0298,-3.23608,9,0,"Detached, Freehold, Garden, Bungalow",,2,0,A detached holiday home with well appointed two bedroom living acco...,35,2019-06-17 16:02:57,"{'latitude': 51.0298, 'longitude': -3.23608}"
uk,somerset,17,realestate,property,nestoria_rank,1560787377,"Channel Heights, Somerset - Garden",house,,buy,370000.0,£,370000.0,370000.0,fixed,0,51.3175,-2.96258,9,0,"Detached, Garden, Double Garage, Kitchen, Bungalow",,3,0,Elevated detached bungalow taking advantage of the far reaching vie...,8,2019-06-17 16:02:57,"{'latitude': 51.3175, 'longitude': -2.96258}"
uk,somerset,17,realestate,property,nestoria_rank,1560787377,"Church Lane, East Huntspill, Highbridge, Somerset, TA9",house,Greenslade Taylor Hunt,buy,399950.0,£,399950.0,399950.0,fixed,0,51.2018,-2.94235,9,0,"Detached, Freehold, Garden, Garage, Cottage",,3,0,"This characterful and well presented, 3/4 bedroom detached cottage ...",98,2019-06-17 16:02:57,"{'latitude': 51.2018, 'longitude': -2.94235}"
uk,somerset,17,realestate,property,nestoria_rank,1560787377,"Holdens Way, Curry Rivel, Langport, Somerset, TA10",house,Greenslade Taylor Hunt,buy,335000.0,£,335000.0,335000.0,fixed,0,51.0204,-2.87747,9,0,"Detached, Freehold, Garden, New Build",,3,0,Advance notification a quality three bedroom detached new build hou...,64,2019-06-17 16:02:57,"{'latitude': 51.0204, 'longitude': -2.87747}"
uk,somerset,18,realestate,property,nestoria_rank,1560787380,"Langford Budville, Wellington, Somerset, TA21",house,Stags,buy,750000.0,£,750000.0,750000.0,fixed,0,51.0074,-3.25946,9,0,"Detached, Garden, Conversion, Kitchen, Lift, Reception, Listed",,4,0,"Superb listed barn conversion with separate flat, guest suite, aisl...",66,2019-06-17 16:03:00,"{'latitude': 51.0074, 'longitude': -3.25946}"
uk,somerset,18,realestate,property,nestoria_rank,1560787380,"Goose Lane, Horton, Ilminster, Somerset, TA19",house,Greenslade Taylor Hunt,buy,500000.0,£,500000.0,500000.0,fixed,0,50.9297,-2.96758,9,0,"Detached, Freehold, Garden, Modern",,4,0,A high specification modern detached house with sized living accomm...,16,2019-06-17 16:03:00,"{'latitude': 50.9297, 'longitude': -2.96758}"
uk,somerset,18,realestate,property,nestoria_rank,1560787380,"Lower Street, Curry Mallet, Taunton, Somerset, TA3",house,Greenslade Taylor Hunt,buy,499000.0,£,499000.0,499000.0,fixed,0,50.9862,-2.95339,9,0,"Detached, Freehold, No Chain",,5,0,A well positioned detached house situated on the edge of this villa...,71,2019-06-17 16:03:00,"{'latitude': 50.9862, 'longitude': -2.95339}"
uk,somerset,18,realestate,property,nestoria_rank,1560787380,"Churchway Close, Curry Rivel, Langport, Somerset, TA10",house,Greenslade Taylor Hunt,buy,297500.0,£,297500.0,297500.0,fixed,0,51.0254,-2.86135,9,0,"Detached, Freehold, Bungalow, Modern, Cul-de-Sac",,3,0,A modern 3 bedroom detached bungalow situated at the end of a cul-d...,95,2019-06-17 16:03:00,"{'latitude': 51.0254, 'longitude': -2.86135}"
uk,somerset,18,realestate,property,nestoria_rank,1560787380,"Stawell, Somerset - Garden",property,Fox Grant,buy,500000.0,£,500000.0,500000.0,fixed,0,51.1406,-2.90728,9,0,"Garden, Garage",,3,0,Situated in a spot within a well regarded somerset village and prov...,144,2019-06-17 16:03:00,"{'latitude': 51.1406, 'longitude': -2.90728}"
uk,somerset,18,realestate,property,nestoria_rank,1560787380,"Apex Drive, Highbridge, Somerset",house,,buy,269950.0,£,269950.0,269950.0,fixed,0,51.2257,-2.98686,9,0,"Detached, Bungalow, Gas Central Heating",,3,0,"A 3 bedroom, detached bungalow with gas central heating and double ...",26,2019-06-17 16:03:00,"{'latitude': 51.2257, 'longitude': -2.98686}"
uk,somerset,18,realestate,property,nestoria_rank,1560787380,"Somerset Way, Highbridge, Somerset",house,,buy,229950.0,£,229950.0,229950.0,fixed,0,51.2184,-2.97058,9,0,"Semi-Detached, Terraced, Parking, Gas Central Heating",,4,0,"A 3/4 bedroom end-of-terrace house with gas central heating, double...",50,2019-06-17 16:03:00,"{'latitude': 51.2184, 'longitude': -2.97058}"
uk,somerset,18,realestate,property,nestoria_rank,1560787380,"Stowey Road, Fivehead, Taunton, Somerset, TA3",house,Stags,buy,895000.0,£,895000.0,895000.0,fixed,0,51.0,-2.92556,9,0,"Detached, En suite, Kitchen",,5,0,An detached house situated in a private and secluded location with ...,81,2019-06-17 16:03:00,"{'latitude': 51.0, 'longitude': -2.92556}"
uk,somerset,18,realestate,property,nestoria_rank,1560787380,"Ruskway Lane, Westport, Langport, Somerset, TA10",house,Greenslade Taylor Hunt,buy,345000.0,£,345000.0,345000.0,fixed,0,50.9738,-2.87834,9,0,"Detached, Freehold, Garden, Grade II, No Chain, Listed",,4,0,Offered for sale with no onward chain a fascinating grade ii listed...,111,2019-06-17 16:03:00,"{'latitude': 50.9738, 'longitude': -2.87834}"
uk,somerset,18,realestate,property,nestoria_rank,1560787380,"Hambridge, Langport, Somerset, TA10",house,Greenslade Taylor Hunt,buy,485000.0,£,485000.0,485000.0,fixed,0,50.9869,-2.8653,9,0,"Detached, Freehold",,4,0,"A large, individual, detached four bedroom house with views to the ...",14,2019-06-17 16:03:00,"{'latitude': 50.9869, 'longitude': -2.8653}"
uk,somerset,18,realestate,property,nestoria_rank,1560787380,"Steart, Bridgwater, Somerset, TA5",house,Greenslade Taylor Hunt,buy,425000.0,£,425000.0,425000.0,fixed,0,51.2081,-3.04174,9,0,"Freehold, Semi-Detached, No Chain",,4,0,A ly presented 3/4 bed semi-detached farmhouse with a range of outb...,57,2019-06-17 16:03:00,"{'latitude': 51.2081, 'longitude': -3.04174}"
